office_number,address,latitude,longitude,place_id
92,"Carrera de Natalio Rivas, 23, C+P, 04770 Adra, Almería, Spain",36.7487985,-3.015048,Ej5DK1AsIENhcnJlcmEgZGUgTmF0YWxpbyBSaXZhcywgMjMsIDA0NzcwIEFkcmEsIEFsbWVyw61hLCBTcGFpbiIfGh0KFgoUChIJI7bT1wBOcA0R6s6HyxnnbC4SA0MrUA
5764,"Av. de Carlos III, 04720 Aguadulce, Almería, Spain",36.8148931,-2.5713492,ChIJgYk3fQlxcA0Rg3xc24eoiwE
5461,"Paseo de Almería, 41, P+4001, 04001 Almería, Spain",36.8384804,-2.4631383,EjRQKzQwMDEsIFBhc2VvIGRlIEFsbWVyw61hLCA0MSwgMDQwMDEgQWxtZXLDrWEsIFNwYWluIiIaIAoWChQKEgkpEYp0AXZwDRGiHsgYjuhWPxIGUCs0MDAx
1809,"Paseo de Almería, 41, 04001 Almería, Spain",36.8384804,-2.4631383,ChIJe_rkcgF2cA0R7LhCBawLpCc
6828,"Calle Canónigo Molina Alonso, 6, P+4004, 04004 Almería, Spain",36.8346925,-2.4617985,Ej9QKzQwMDQsIENhbGxlIENhbsOzbmlnbyBNb2xpbmEgQWxvbnNvLCA2LCAwNDAwNCBBbG1lcsOtYSwgU3BhaW4iIhogChYKFAoSCd-Zg18CdnANEXT90lbToKzPEgZQKzQwMDQ
3378,"Calle Arcipreste de Hita, 04006 Almería, Spain",36.8410418,-2.4487143,ChIJnY5n8OKdeg0RoljaxaO3Tf4
4540,"Carrera del Perú, 04006 Almería, Spain",36.84335859999999,-2.4501242,ChIJDTRdAwieeg0RkDNVhmSYkng
3380,"Av. de Cabo de Gata, 107, 04007 Almería, Spain",36.8294342,-2.4518805,ChIJYcAZS_Cdeg0Rc4htJf_lBjI
3376,"Almería, Spain",36.834047,-2.4637136,ChIJwfLM7ACeeg0RXki8jh-gnY0
6641,"04007 Almería, Spain",36.8276405,-2.4450889,ChIJUSqnsYKdeg0RPU09Ys-no-E
2107,"Almería Airport (LEI), Carretera Níjar, Km. 9, 04130 Almería, Spain",36.84464699999999,-2.3731477,ChIJ_WCGZVeZeg0RZV08CE0NGP8
1454,"Carr. de Nijar, 55, 04130 El Alquián, Almería, Spain",36.8529451,-2.3558741,ChIJxUS9iQieeg0RJaUEAvQR9iM
3375,"Calle Campamento, Calle Alvarez de Sotomayor, 04240, Almería, Spain",36.8883657,-2.4200655,ChIJ_6H6bgCfeg0RiZtVRko0bFo
6528,"Av. Manuel Salmerón, 107, 04760 Berja, Almería, Spain",36.8429706,-2.946532,ChIJBVDtia9IcA0R5-gUapKJkdo
7069,"Calle Sorbas, 8, C+P, 04140 Carboneras, Almería, Spain",36.9972584,-1.8939068,EjdDK1AsIENhbGxlIFNvcmJhcywgOCwgMDQxNDAgQ2FyYm9uZXJhcywgQWxtZXLDrWEsIFNwYWluIh8aHQoWChQKEgkZ7uOSk956DRFf1qQfgaRtVhIDQytQ
7041,"Av. Barcelona, 41, 04610 Cuevas del Almanzora, Almería, Spain",37.294921,-1.8771709,ChIJqbzoDiYrZQ0RJI8TGz5tRdY
2420,"El Ejido, Málaga, Spain",36.72862130000001,-4.418759,ChIJSbBcYcf3cg0RZWo_0wVnMns
7675,"Calle, Paseo Sta. María del Aguila, 67, 04710, Almería, Spain",36.77988,-2.7755114,ChIJLxCmUyZocA0Rnw-zjF_OOpM
6479,"Calle Mayor, 206, 04630 Garrucha, Almería, Spain",37.1778886,-1.8230531,ChIJPz_2w-cpew0RAG7z3xBc0rs
3383,"Calle Antonio Beltrán, 7, 04600 Huércal-Overa, Almería, Spain",37.389241,-1.9422179,ChIJH0uFJPMuZQ0Rq6tGTKU5Cas
2088,"Av. Europa, 195, 04745 La Mojonera, Almería, Spain",36.7548429,-2.6834014,ChIJ6eGm1F5vcA0RlNzhaL39Yks
2659,"Bulevar Cdad. de Vicar, 1254, 04738 Puebla de Vícar, Almería, Spain",36.8013458,-2.6444685,ChIJSXo_I1JucA0RomZev5qBRlI
3379,"Av. Juan Carlos I, 2, 04740 Roquetas de Mar, Almería, Spain",36.7651242,-2.6132413,ChIJAU0JwAVwcA0RRtprFVgVe5k
7003,"Calle San Isidro Labrador, 04740 El Parador de las Hortichuelas, Almería, Spain",36.8031353,-2.5995537,ChIJkxdnfKhxcA0RJWq_bty7mmE
5500,"Calle San José, 16, C+P, 04740 Roquetas de Mar, Almería, Spain",36.7652017,-2.6153469,EkBDK1AsIENhbGxlIFNhbiBKb3PDqSwgMTYsIDA0NzQwIFJvcXVldGFzIGRlIE1hciwgQWxtZXLDrWEsIFNwYWluIh8aHQoWChQKEglJYOHAHHBwDRH7lk_Gr0lVQxIDQytQ
2215,"04117 Níjar, Almería, Spain",36.8269305,-2.1646722,ChIJb78QNVXreg0RQJFA43vSAxw
220,"Av. Virgen del Carmen, 17, 11201 Algeciras, Cádiz, Spain",36.1297168,-5.4449697,ChIJSUOLbNCUDA0R6iyrVYPcYyA
3219,"Calle Radio Algeciras, 3, C+P, 11201 Algeciras, Cádiz, Spain",36.130832,-5.4465427,Ej1DK1AsIENhbGxlIFJhZGlvIEFsZ2VjaXJhcywgMywgMTEyMDEgQWxnZWNpcmFzLCBDw6FkaXosIFNwYWluIh8aHQoWChQKEglLEszQz5QMDRHp0MRDUaLAlBIDQytQ
3232,"Calle Mezquita, 1, 11202 Algeciras, Cádiz, Spain",36.1362886,-5.4546413,ChIJVzsD5cmUDA0Rh0q8_r1r4JY
7037,"Calle Ruiz Zorrilla, 20, 11203 Algeciras, Cádiz, Spain",36.13186,-5.452465699999999,ChIJEaqJL8mUDA0R3dsQCQpF-lg
1447,"Av. la Caña, 48, 11203 Algeciras, Cádiz, Spain",36.132884,-5.4562703,ChIJJ-EC5cmUDA0R3znW4jCT01k
2096,"Av. España, 11, 11205 Algeciras, Cádiz, Spain",36.1457412,-5.4506444,ChIJuyfaSTHrDA0RIDwaFncDytw
6093,"Playa de Getares, Cádiz, Spain",36.0959831,-5.4433847,ChIJV94Lu_iUDA0RIsCpYcGA98M
1465,"Calle Muñoz Vázquez, 18, C+P, 11630 Arcos de la Frontera, Cádiz, Spain",36.7511126,-5.8147417,EklDK1AsIENhbGxlIE11w7FveiBWw6F6cXVleiwgMTgsIDExNjMwIEFyY29zIGRlIGxhIEZyb250ZXJhLCBDw6FkaXosIFNwYWluIh8aHQoWChQKEgkTOpR836MNDRE9P8r8LuvkBRIDQytQ
1076,"Av. Andalucía, 2, 11160 Barbate, Cádiz, Spain",36.1909325,-5.920890500000001,ChIJLaUQOGhDDA0R6kMJFvQ3cRs
3230,"4223 Blanco Rd, San Antonio, TX 78212, USA",29.4858652,-98.5082371,ChIJ4QZbub1fXIYRzX7Cd44tA_U
1603,"Cádiz, Spain",36.5270612,-6.2885962,ChIJDyTsJFfSDQ0RADugjP1jBAQ
1600,"Av. Cuatro de Diciembre de 1977, 28, C+P, 11006 Cádiz, Spain",36.5317679,-6.2931205,Ej1DK1AsIEF2LiBDdWF0cm8gZGUgRGljaWVtYnJlIGRlIDE5NzcsIDI4LCAxMTAwNiBDw6FkaXosIFNwYWluIh8aHQoWChQKEgn9_d32YtENDREqokbOw-ScTRIDQytQ
3234,"Av. Andalucía, 53, 55+C+P, 11007 Cádiz, Spain",36.5203687,-6.2847859,Ei81NStDK1AsIEF2LiBBbmRhbHVjw61hLCA1MywgMTEwMDcgQ8OhZGl6LCBTcGFpbiIiGiAKFgoUChIJRdaXGtLTDQ0RrAtYdhqKuMkSBjU1K0MrUA
3226,"Calle, Av. Ana de Viya, 3, 11009 Cádiz, Spain",36.5127035,-6.2801694,ChIJd7MrMsvTDQ0RkT_UcSJUk4g
1602,"Av. José León de Carranza, 8, 11011 Cádiz, Spain",36.4994879,-6.2731732,ChIJEQSUPE7SDQ0RniACO5br240
6064,"Chiclana de la Frontera, Cádiz, Spain",36.4165052,-6.1461102,ChIJRzKtVr00DA0R9pDIwCnYFvc
3095,"Calle Arroyuelo, 1, 11130 Chiclana de la Frontera, Cádiz, Spain",36.42064999999999,-6.14962,ChIJM8-eqJ00DA0Rf3H_sW0gETI
3135,"Calle Isaac Peral, 57, 11550 Chipiona, Cádiz, Spain",36.7382952,-6.4351343,ChIJ8V-d_Al1Dg0RcpSimQX8Emk
2067,"Calle Laguna, 3, 11140 Conil de la Frontera, Cádiz, Spain",36.2777616,-6.0880183,ChIJ8ZswnB44DA0RpQ-tOhxk8rU
3249,"Calle Cartuja, S/N, 11401 Jerez de la Frontera, Cádiz, Spain",36.6807712,-6.1287886,ChIJv9Fsqu3GDQ0RqhFlPIvm52Y
3243,"Calle Eje, 13, 11405 Jerez de la Frontera, Cádiz, Spain",36.68997710000001,-6.111886699999999,ChIJSXFc39_GDQ0RaKpcQozqflU
6168,"Av. Arcos de la Frontera, 6, 11405 Jerez de la Frontera, Cádiz, Spain",36.6889095,-6.1149722,ChIJV7-JteDGDQ0RN_RQ_jxalik
5475,"Calle Larga, 57, 11403 Jerez de la Frontera, Cádiz, Spain",36.685055,-6.136508,ChIJffthHpTGDQ0RQUD1Ruljcjk
461,"Plaza Manuel Ríos Ruiz, 4, 11404 Jerez de la Frontera, Cádiz, Spain",36.694728,-6.144231,ChIJH8QMkqTGDQ0RLOJtiKU-nSw
6643,"Av. Voltaire, 11, 11405 Jerez de la Frontera, Cádiz, Spain",36.7046695,-6.113999499999999,ChIJX07z7dbGDQ0RcyFAs-90LpI
3235,"Av. de Méjico, 11405 Jerez de la Frontera, Cádiz, Spain",36.6925433,-6.1285303,ChIJ7SMEBcHGDQ0RT3AS_cFW1LI
2108,"Paseo de las Delicias, 13, 11406 Jerez de la Frontera, Cádiz, Spain",36.6853904,-6.1074271,ChIJS3hHhh7HDQ0RlgiBDhZjYec
7097,"Av. Puerta del Sur &, Calle Grecia, 11408 Jerez de la Frontera, Cádiz, Spain",36.6697643,-6.144902,ChIJR0TV_obGDQ0R1P5orPDb7Po
6426,"Av. María Guerrero, 156, 158, 11300 La Línea de la Concepción, Cádiz, Spain",36.1766947,-5.348697899999999,ChIJQy9gmfbADA0Rb_9DHrx9h4k
485,"Calle Jardines, 13, 11300 La Línea de la Concepción, Cádiz, Spain",36.1622672,-5.3486387,ChIJ_ek5r5PADA0RBy0nSBSCy8k
5969,"Calle San Juan, 20, 11170 Medina-Sidonia, Cádiz, Spain",36.4584304,-5.9281678,ChIJ_e8YNjJNDA0Raaf4vGvvnXI
2065,"Municipality of El Puerto de Santa María, 11500, Cádiz, Spain",36.6393281,-6.258836899999999,ChIJjcxQgVbFDQ0R8DugjP1jBAQ
6784,"Av. de la Libertad, 38, C+P, 11500 El Puerto de Sta María, Cádiz, Spain",36.594982,-6.2449374,EklDK1AsIEF2LiBkZSBsYSBMaWJlcnRhZCwgMzgsIDExNTAwIEVsIFB1ZXJ0byBkZSBTdGEgTWFyw61hLCBDw6FkaXosIFNwYWluIh8aHQoWChQKEgm50A9QItANDRGXaNm67Z7zGRIDQytQ
3146,"Calle Virgen de Los Milagros, 87, 87+C+P, 11500 El Puerto de Sta María, Cádiz, Spain",36.5992657,-6.2252564,ElY4NytDK1AsIENhbGxlIFZpcmdlbiBkZSBMb3MgTWlsYWdyb3MsIDg3LCAxMTUwMCBFbCBQdWVydG8gZGUgU3RhIE1hcsOtYSwgQ8OhZGl6LCBTcGFpbiIiGiAKFgoUChIJpycfOejPDQ0RnH22ck7nahQSBjg3K0MrUA
3099,"Plaza del Polvorista, 5, C+P, 11500 El Puerto de Sta María, Cádiz, Spain",36.5953314,-6.2275912,EkpDK1AsIFBsYXphIGRlbCBQb2x2b3Jpc3RhLCA1LCAxMTUwMCBFbCBQdWVydG8gZGUgU3RhIE1hcsOtYSwgQ8OhZGl6LCBTcGFpbiIfGh0KFgoUChIJIfxcKN3PDQ0RnavSTUiU4vcSA0MrUA
6705,"Av. Catorce de Abril, 50, C+P, 11510 Puerto Real, Cádiz, Spain",36.5254264,-6.1715634,Ej9DK1AsIEF2LiBDYXRvcmNlIGRlIEFicmlsLCA1MCwgMTE1MTAgUHVlcnRvIFJlYWwsIEPDoWRpeiwgU3BhaW4iHxodChYKFAoSCXOnyYAXzA0NEUDAdJDWfI-sEgNDK1A
474,"97, Calle de la Pl., 95, 11510 Puerto Real, Cádiz, Spain",36.5277475,-6.189875799999999,ChIJsfnKKSzMDQ0RVc8MO5geOYQ
3248,"Av. María Auxiliadora, 78, 11520 Rota, Cádiz, Spain",36.62457920000001,-6.363338700000001,ChIJs9-0E83ZDQ0R9RGeoRltixc
3244,"Base Naval de Rota, s/n, 11530 Rota, Cádiz, Spain",36.6383257,-6.3354379,ChIJ7__FVM_ZDQ0Ry0Pw2Zk2oj8
6065,"11120 Camposoto, Cádiz, Spain",36.4436176,-6.2230688,ChIJ-9s4vrMyDA0R09Ck0JHlilQ
7076,"Calle Real, C/V Heroes Baleares, 11100 San Fernando, Cádiz, Spain",36.4628845,-6.1991201,ChIJM7zZ7CbNDQ0RNnzofqWDrxY
6079,"Plaza Hornos Púnicos, 11100 San Fernando, Cádiz, Spain",36.4609278,-6.2056545,ChIJcZluzTrNDQ0RFWeqaJnc6i0
5680,"Plaza de Andalucía, S-N, 11360 San Roque, Cádiz, Spain",36.2101183,-5.3872653,ChIJr2kQ4ubBDA0RZhqnWpenRqE
5741,"Plaza de la Paz, S-N, 11540 Sanlúcar de Barrameda, Cádiz, Spain",36.7749716,-6.3530831,ChIJc-MH5SXeDQ0R7hSvcLXbls4
5740,"Calle Ancha, 11, 11540 Sanlúcar de Barrameda, Cádiz, Spain",36.7788969,-6.353532,ChIJnQIf5CXeDQ0RLcmDXmYStqs
3225,"Calle Batalla del Salado, 4, 11380 Tarifa, Cádiz, Spain",36.0146554,-5.604608499999999,ChIJkdfLw_eODA0ReRGDrFTmKYQ
3109,"Av. de España, 44, 11600 Ubrique, Cádiz, Spain",36.6749504,-5.4471574,ChIJB6_b7W0XDQ0RNOrM2DLpzCo
6374,"Av. Andalucía, 37-E, 11150 Vejer de la Frontera, Cádiz, Spain",36.2504966,-5.9694101,ChIJ_SIxg85FDA0RxyqSML-TA84
6690,"Calle el Santo, 10, 11650 Villamartin, Cádiz, Spain",36.8606477,-5.6422488,ChIJ8SQl4n5zDQ0RIOm9PHlTa00
6602,"14920 Aguilar de la Frontera, Córdoba, Spain",37.5138455,-4.6566596,ChIJwQw3yG9rbQ0RbSGidRLy6hs
1455,"Plaza de Andalucía, 3, 14720 Almodóvar del Río, Córdoba, Spain",37.8103336,-5.019752,ChIJyXoc8worbQ0R_OUdH67VpyQ
1492,"Calle Cardenal Herranz Casado, 40, 14850 Baena, Córdoba, Spain",37.6155487,-4.3232487,ChIJ9WHjamWhbQ0RWUNFk3ZQlGg
1607,"Av. Jose Solis Ruiz, 63, C+P, 14940 Cabra, Córdoba, Spain",37.4736386,-4.4429112,EjpDK1AsIEF2LiBKb3NlIFNvbGlzIFJ1aXosIDYzLCAxNDk0MCBDYWJyYSwgQ8OzcmRvYmEsIFNwYWluIh8aHQoWChQKEgnj_8LGK3RtDRGz7XLxYaZ7chIDQytQ
6364,"Av. Carlos III, 68, 14100 La Carlota, Córdoba, Spain",37.6725805,-4.9335292,ChIJRTpTk1IwbQ0RHr-lEt6lsmA
425,"Plaza de la Constitucion, 3, 14620 El Carpio, Córdoba, Spain",37.9403,-4.4985099,ChIJ6Sgf2TX8bA0RJGSpgsbgtog
3257,"Carr. Granada Badajoz, s/n, 14340 Cerro Muriano, Córdoba, Spain",38.001875,-4.768543999999999,ChIJCauz07LdbA0RlwgX8sHE8Zk
3173,"Calle, Av. Ronda de los Tejares, 5, 14001 Córdoba, Spain",37.8888204,-4.779957800000001,ChIJ-QsUC2TfbA0RkO9t2Pqd0oM
2104,"Av. del Aeropuerto, 1, C+P, 14004 Córdoba, Spain",37.8784582,-4.7889751,EjFDK1AsIEF2LiBkZWwgQWVyb3B1ZXJ0bywgMSwgMTQwMDQgQ8OzcmRvYmEsIFNwYWluIh8aHQoWChQKEgnf2e3SpSBtDRFhE8O717LoVhIDQytQ
3177,"Calle Antonio Maura, 4, 14004 Córdoba, Spain",37.8821574,-4.7902558,ChIJpfdafl_fbA0RnBwm8KUXao0
1675,"14005 Córdoba, Spain",37.8740762,-4.8365094,ChIJ96H-lP8nbQ0RICF94XvSAxw
424,"14006 Córdoba, Spain",37.897326,-4.778256799999999,ChIJGX1WoqUgbQ0R4O4w8m1av9s
2331,"Av. del Gran Capitán, 5, C+P, 14008 Córdoba, Spain",37.8861109,-4.7826707,EjRDK1AsIEF2LiBkZWwgR3JhbiBDYXBpdMOhbiwgNSwgMTQwMDggQ8OzcmRvYmEsIFNwYWluIh8aHQoWChQKEgmxWjeQY99sDRFtXaaK1IP6SxIDQytQ
3270,"Av. Ronda de los Tejares, 25, 25+C+P, 14008 Córdoba, Spain",37.8866017,-4.7837806,EjsyNStDK1AsIEF2LiBSb25kYSBkZSBsb3MgVGVqYXJlcywgMjUsIDE0MDA4IEPDs3Jkb2JhLCBTcGFpbiIiGiAKFgoUChIJ5YTe9WPfbA0Ri_Qp9u4OyUUSBjI1K0MrUA
2100,"Av. del Gran Capitán, 5, 14008 Córdoba, Spain",37.8861109,-4.7826707,ChIJGX1WoqUgbQ0RM2gRSVIN00A
2114,"Av. de Granada, 17, 14009 Córdoba, Spain",37.8686186,-4.7758873,ChIJU7QGHo8gbQ0RWJ18J3M_xQQ
2369,"Calle Periodista Eduardo Baro, 14010 Córdoba, Spain",37.8780448,-4.76368,ChIJ1V69WnkgbQ0RLjACF4HSnrM
2103,"Av. de la Viñuela, 14010 Córdoba, Spain",37.8896449,-4.7629983,EilBdi4gZGUgbGEgVmnDsXVlbGEsIDE0MDEwIEPDs3Jkb2JhLCBTcGFpbiIuKiwKFAoSCal5KGmE32wNERq9HJlykteJEhQKEgnzaw5KqwRtDRGgIH3he9IDHA
5899,"Avenida Arroyo del Moro, 9, 14011 Córdoba, Spain",37.8895076,-4.7977645,ChIJM3GOxETfbA0REF111oML4Es
6982,"Calle Betis, 10, 14011 Córdoba, Spain",37.8928935,-4.7974831,ChIJNV6p3ETfbA0RgxL15iRXyfU
1544,"Calle Pablo Ruiz Picasso, 35, 14014 Córdoba, Spain",37.8879071,-4.7569422,ChIJE6quMo_fbA0RwkSrxVbWBjc
1630,"Av. Carlos III, 30, 32, 14014 Córdoba, Spain",37.8962894,-4.7589255,ChIJ2UEakpDfbA0R_bIoV_W7eKQ
5967,"Calle Ramón y Cajal, 2 - Derecha, 14520 Fernán-Núñez, Córdoba, Spain",37.6699881,-4.7258355,ChIJM50N5SoWbQ0RiO3uF14bPPI
7568,"Calle Corredera, 20, 14290 Fuente Obejuna, Córdoba, Spain",38.2650104,-5.4188322,ChIJEyIdtjxqEw0RSpXNS0sRD0M
6786,"Calle Carlos III, 18, 14120 Fuente Palmera, Córdoba, Spain",37.7064695,-5.103886999999999,ChIJDVvvy33SEg0RWJ7ONbXQ4qE
2089,"Av. Corredera, 1, 14270 Hinojosa del Duque, Córdoba, Spain",38.5004321,-5.147477200000001,ChIJAT8FZH5WEw0RyyjuOD7RBhA
7052,"Calle Puerta de la Muela, 9, 14970 Iznájar, Córdoba, Spain",37.2567849,-4.3075157,ChIJod7G0yiHbQ0R_W6sh2YyKBQ
6636,"Av. del Parque, 14900 Lucena, Córdoba, Spain",37.4113487,-4.4922221,ChIJla1Pt8VwbQ0RqHf6YZZUv5Q
3560,"Calle el Peso, 2, 14900 Lucena, Córdoba, Spain",37.4087921,-4.4862331,ChIJO4TSaclwbQ0R5BNE5SOYGOA
4400,"Av. de Andalucía, 56, 14550 Montilla, Córdoba, Spain",37.5813527,-4.6462054,ChIJ40KNkoIUbQ0R8DNJrruNij4
7668,"Calle Corredera, 85, C+P, 14600 Montoro, Córdoba, Spain",38.0237979,-4.3821105,EjhDK1AsIENhbGxlIENvcnJlZGVyYSwgODUsIDE0NjAwIE1vbnRvcm8sIEPDs3Jkb2JhLCBTcGFpbiIfGh0KFgoUChIJ3Y5BqjRWbA0RpWka-4GpeogSA0MrUA
4920,"Calle Feria, 38, 14700 Palma del Río, Córdoba, Spain",37.6993164,-5.2833993,ChIJ67VaxTDbEg0RZcBmZBKJcWg
5060,"Plaza Sta. Bárbara, 18, 14200 Peñarroya-Pueblonuevo, Córdoba, Spain",38.2992563,-5.2670049,ChIJDf7OZ8tFEw0RJhBJeb7nHr0
1589,"Calle Gaitan, 43, 14730 Posadas, Córdoba, Spain",37.8022773,-5.1063651,ChIJHRLT22DUEg0RArCYkN8ilMQ
1817,"Calle Mayor, 58, 14400 Pozoblanco, Córdoba, Spain",38.3805773,-4.849329099999999,ChIJvwh3Myq7bA0RuMeT5k8pulk
1519,"Calle Carrera de las Monjas, 9, 14800 Priego de Córdoba, Córdoba, Spain",37.4382918,-4.1951814,ChIJT97UDv-QbQ0RscEGMO5pn5A
5237,"Esq. P. Picasso, Av. de la Estación, 2-4, 14500 Puente Genil, Córdoba, Spain",37.3928608,-4.7638212,ChIJxQNOY91CbQ0REOnDWLsT5eM
3262,"Plaza Paseo del Romeral, 14, 14500 Puente Genil, Córdoba, Spain",37.3895643,-4.7711147,ChIJYQFy6CBDbQ0Ra7iry_j7exs
3271,"Calle Alta, 20, 14640 Villa del Río, Córdoba, Spain",37.9810212,-4.2907358,ChIJ2R3XuN5TbA0Rg9iwwfBoTA4
6973,"Paseo de Colón, 10, 18220 Albolote, Granada, Spain",37.2292736,-3.6528978,ChIJrZIgQeX9cQ0R6cgyel1LeQ8
7376,"Av. de Andalucia, S-N Esq. Cerveteri, 18690 Almuñécar, Granada, Spain",36.7328096,-3.6885644,ChIJnzYMRZqIcQ0R3M8SoTSIrjM
520,"Calle Poniente, 23, 18100 Armilla, Granada, Spain",37.1431514,-3.629093199999999,ChIJ4ztIZJv7cQ0R278N5Xl1630
1571,"Av. de Andalucía, 55, 18230 Atarfe, Granada, Spain",37.2230453,-3.6868061,ChIJB98Dij7-cQ0RwLrX-rydpMI
1101,"Calle Dolores, 2, C+P, 18800 Baza, Granada, Spain",37.49045,-2.77341,EjFDK1AsIENhbGxlIERvbG9yZXMsIDIsIDE4ODAwIEJhemEsIEdyYW5hZGEsIFNwYWluIh8aHQoWChQKEglni8GM2elvDRHk9NnYQI99SRIDQytQ
6443,"Calle San Ramón, 34, 18194 Churriana de la Vega, Granada, Spain",37.1454624,-3.6436991,ChIJndWqhfL7cQ0RfVqsSrj0bzU
3341,"18850 Cúllar, Granada, Spain",37.5828301,-2.5705729,ChIJv0VZMB7zbw0RBbPhuTSenrU
2745,"Calle Real de Málaga, 6, 18110 Gabia Grande, Granada, Spain",37.1360818,-3.6677806,ChIJ164sxF35cQ0R1Aj5D5nblW8
3387,"Calle, Camino de Ronda, 138, 18003 Granada, Spain",37.1770286,-3.609737899999999,ChIJd9K-wpL8cQ0RU3SwNoy7r28
7086,"Calle, Camino de Ronda, 74, 18004 Granada, Spain",37.17017999999999,-3.6053583,ChIJjYqvJpf8cQ0R5VM-UszYuDA
463,"Calle Alhamar, 12-14, 18005 Granada, Spain",37.1690962,-3.600927099999999,ChIJHa4WaL38cQ0RSxuXUXJTKCE
3388,"Av. de Cadiz, 4, 18006 Granada, Spain",37.1606678,-3.5999048,ChIJ_0zcuaH8cQ0RfFGFHY00_lA
2109,"Paseo del Emperador Carlos V, 1, 18001 Granada, Spain",37.1534883,-3.594084799999999,ChIJU33hWqf8cQ0R-Lmhpn42uxA
2112,"Edificio Sofía Residencial Bola de Oro, s/n, 18008 Granada, Spain",37.1612279,-3.5864086,ChIJB5zCA6_8cQ0RLiWcsrIj2lk
3340,"Calle Poeta Manuel Gongora, 3, 18008 Granada, Spain",37.1670287,-3.5954656,ChIJO5s05aT8cQ0RrTRWnMCSVmw
2900,"Plaza Isabel la Católica, 1, 18009 Granada, Spain",37.1758001,-3.5971493,ChIJQVYa3778cQ0RnP_B1Rt_95c
7565,"Calle Ángel Ganivet, 8, 18009 Granada, Spain",37.1725963,-3.597529900000001,ChIJT1pwJLz8cQ0RHLi9Z1PkYiw
440,"Plaza Virgen del Carmen, 3, 18009 Granada, Spain",37.1796032,-3.5941996,ChIJ55jfi778cQ0Rk0Ye_fTKOCw
3344,"Av. de Madrid, 1, 18012 Granada, Spain",37.1846632,-3.6046766,ChIJ12m8cen8cQ0RXNea3Kar9Lw
2903,"Av. de la Constitución, 42, 18012 Granada, Spain",37.1865048,-3.6086812,ChIJfWDqAu_8cQ0RZvz7FDsoS-o
3391,"Carr. de Jaén, 34, C+P, 18013 Granada, Spain",37.1949699,-3.6086333,Ei1DK1AsIENhcnIuIGRlIEphw6luLCAzNCwgMTgwMTMgR3JhbmFkYSwgU3BhaW4iIxohChoSGAoUChIJmTXrnOP8cQ0R0S9-FbbK9RcQIhIDQytQ
6099,"Av. Federico García Lorca, 7, 18014 Granada, Spain",37.1984176,-3.6167928,ChIJ96iDC-b8cQ0R87I8w7rzdqA
2031,"Calle Gaviota, 12, 18014 Granada, Spain",37.1856841,-3.6124548,ChIJD54H0vH8cQ0RbA6--aSZ0a8
444,"Calle Sagrada Familia, 19, 18015 Granada, Spain",37.1909753,-3.6247969,ChIJd8f3Alf8cQ0RTr-mCfOtFLM
2956,"Av. Medina Olmos, S-N, 18500 Guadix, Granada, Spain",37.3019194,-3.1341145,ChIJN1-gFgErbg0RKham8DNcwHw
446,"Plaza Primero de Mayo, 3, 18360 Huétor Tájar, Granada, Spain",37.1945513,-4.046643299999999,ChIJEWtFs-cKcg0RZEvN9el2IA8
3346,"Av. Rodríguez de la Fuente de Íllora, 24, 18260 Íllora, Granada, Spain",37.285458,-3.8786727,ChIJiZfm8LD5bQ0RQbihf0WhA7Q
3520,"Calle, Carrera de San Agustín, 9, 18300 Loja, Granada, Spain",37.1666806,-4.1493771,ChIJBz_sLyd0cg0RCT6dDWnq2cI
4276,"Calle Pedro Arroyo, 18200 Maracena, Granada, Spain",37.2082522,-3.6316938,ChIJP7dGILD9cQ0R2sUfVdvI9TU
7665,"Plaza de la Aurora, 7, 18600 Motril, Granada, Spain",36.7451296,-3.5161165,ChIJC40sPbyQcQ0RR4e6dnCNYpM
2095,"Calle Ancha, 12, C+P, 18600 Motril, Granada, Spain",36.7522749,-3.5168497,EjJDK1AsIENhbGxlIEFuY2hhLCAxMiwgMTg2MDAgTW90cmlsLCBHcmFuYWRhLCBTcGFpbiIfGh0KFgoUChIJ0-RrmMCQcQ0R0a0Eoa-7E2gSA0MrUA
7025,"Calle Cruces, 2 Bq. 3 Local 6, 18151 Ogíjares, Granada, Spain",37.1204825,-3.6059913,ChIJVSrnPhn7cQ0R0jT3Oyyz1Kc
5100,"Calle Real de Pinos Puente, 172, 18240 Pinos Puente, Granada, Spain",37.2513561,-3.7495295,ChIJw3f3ieT_bQ0RgRTqJnA-1Gs
455,"Paseo del, Paseo Señor de la Salud, 1, 18320 Santa Fe, Granada, Spain",37.1901914,-3.7155322,ChIJpwqaJw__cQ0RgNdFl_200JA
6129,"Av. Madrid, s/n, 18140 La Zubia, Granada, Spain",37.1192481,-3.5840233,ChIJM1syoCv7cQ0Rrtx7ncFtZFo
7014,"21120 Corrales, Huelva, Spain",37.2737055,-6.988369199999999,ChIJTWJUcBfOEQ0RP5QhcQqRoPQ
1456,"Calle Venida de la Virgen, 20, 21730 Almonte, Huelva, Spain",37.2613269,-6.5170596,ChIJY6ipIEf6EQ0RC5JURASo4r4
6789,"21200 Aracena, Huelva, Spain",37.8935487,-6.561888400000001,ChIJsUyFehB6EQ0RDFHEAy6_OBA
454,"Calle Isla Cristina, Nº 4, 21400 Ayamonte, Huelva, Spain",37.21429,-7.409389999999999,ChIJG_xv0OkiEA0R6JHfAGGsBR0
7015,"Plaza Redonda, 3, C+P, 21450 Cartaya, Huelva, Spain",37.2830143,-7.154793199999999,EjNDK1AsIFBsYXphIFJlZG9uZGEsIDMsIDIxNDUwIENhcnRheWEsIEh1ZWx2YSwgU3BhaW4iHxodChYKFAoSCeUrU8tHMhANEe_3deDF576ZEgNDK1A
5452,"Calle Vázquez López, 7, 21001 Huelva, Spain",37.2562362,-6.951431299999999,ChIJRYcJryXQEQ0Rxpb0vxn6rQY
1633,"Calle Plus Ultra, 26, 21001 Huelva, Spain",37.2567551,-6.9551051,ChIJkYkOEC_QEQ0Rbaa7upA9Q1g
6136,"Huelva, Spain",37.261421,-6.9447224,ChIJSyhE1-bPEQ0Rgw-0EMGqK9g
3275,"Calle Escritor Luis Manzano, 21002 Huelva, Spain",37.2647383,-6.9555292,ChIJLaEnztfPEQ0RnDxmQbDnK2k
3274,"Av. de Diego Morón, 18, 21005 Huelva, Spain",37.2802595,-6.940798399999999,ChIJrdr_k-nPEQ0RW2m_i3PIBuo
451,"Av. Alcalde Federico Molina Orta, 47, C+P, 21006 Huelva, Spain",37.259918,-6.9324658,Ej5DK1AsIEF2LiBBbGNhbGRlIEZlZGVyaWNvIE1vbGluYSBPcnRhLCA0NywgMjEwMDYgSHVlbHZhLCBTcGFpbiIfGh0KFgoUChIJhfXnWBvQEQ0RbxK8Iybu1UESA0MrUA
3273,"Av. José Fariña, 21006 Huelva, Spain",37.2596948,-6.935107899999999,ChIJ5Z3BDxzQEQ0RxLApGOVqK-Q
3186,"21410 Isla Cristina, Huelva, Spain",37.2005266,-7.323303500000001,ChIJ5XbW0vckEA0R6cSlBSzlPf4
456,"Calle Real, 3, 21440 Lepe, Huelva, Spain",37.2552738,-7.2039519,ChIJx039L9wxEA0R_Z33dch-YCI
7074,"Calle Arcipreste Borrego, S/N, 21800 Moguer, Huelva, Spain",37.276207,-6.8378302,ChIJ83NG1avEEQ0R-AhDDQiJ6lk
6788,"Plaza del Corazón de Jesús, 1, 21700 La Palma del Condado, Huelva, Spain",37.3881021,-6.5532151,ChIJZ0tQJzzyEQ0Ra5tAWjqfSwg
3272,"Av. Andalucia, S/N, 21100 Punta Umbría, Huelva, Spain",37.1811714,-6.9673145,ChIJK-cUpSvREQ0RgvpdXmK0oZk
6783,"21610 San Juan del Puerto, Huelva, Spain",37.3157974,-6.8431402,ChIJoaNA0H3EEQ0RSpxatMZObrI
6545,"Calle Valle de la Fuente, 34, 21600 Valverde del Camino, Huelva, Spain",37.573602,-6.754963999999999,ChIJ6x7prHi9EQ0RhGUHP_VPVHM
3353,"Calle Miguel de Cervantes, 2, 23680 Alcalá la Real, Jaén, Spain",37.4624812,-3.922744299999999,ChIJ2T-fnmvvbQ0R0eKpIzK0AaY
6639,"Av. Blás Infante, 23740 Andújar, Jaén, Spain",38.0387752,-4.0430141,ChIJfx6TeLM3bA0RJKc1hBixUbM
148,"Calle Ollerías, 16, 23740 Andújar, Jaén, Spain",38.0385368,-4.0526996,ChIJC8Kudss3bA0RjYHM8QNHcdA
1471,"Calle Cervantes, 11, 23760 Arjona, Jaén, Spain",37.9364706,-4.0551257,ChIJG7WGvW41bA0RQM01eTIEsBw
2550,"Calle San Pablo, 27, 23440 Baeza, Jaén, Spain",37.9942088,-3.4664118,ChIJt6NIGJmLbg0RuT3nRP7tI2A
3355,"Calle Sebastián Elcano, 12, 23710 Bailén, Jaén, Spain",38.0946138,-3.778157,ChIJ87YQd9EnbA0R_yZxD9u5Vho
3350,"Calle de Madrid, 1, 23200 La Carolina, Jaén, Spain",38.2745971,-3.6154087,ChIJbWto6o6ibg0RhHtKSUVEKbk
5510,"Plaza Dean Mazas, 2, 23001 Jaén, Spain",37.7672356,-3.7884682,ChIJO7XJj3TXbQ0RZsm_6k1FQZU
2561,"Av. de Andalucía, 54, C+P, 23006 Jaén, Spain",37.7780931,-3.7999155,Ei5DK1AsIEF2LiBkZSBBbmRhbHVjw61hLCA1NCwgMjMwMDYgSmHDqW4sIFNwYWluIh8aHQoWChQKEgnp31k2F9dtDREa78kebizllxIDQytQ
6150,"Plaza Jaén Por la Paz, 6, 23008 Jaén, Spain",37.7804252,-3.7893268,ChIJPZ5s-AXXbQ0RukxAJOqgwFk
2551,"Paseo de la Estación, 44, C+P, 23008 Jaén, Spain",37.7759514,-3.7890591,EjJDK1AsIFBhc2VvIGRlIGxhIEVzdGFjacOzbiwgNDQsIDIzMDA4IEphw6luLCBTcGFpbiIfGh0KFgoUChIJwzmGLwnXbQ0RwvWu7B83IIgSA0MrUA
3348,"Calle Isaac Peral, 12, 23700 Linares, Jaén, Spain",38.0958167,-3.6334071,ChIJD8OtPzKbbg0RZZzrnxuHLDc
2573,"Av. de Andalucía, 8, 23700 Linares, Jaén, Spain",38.0930209,-3.6389704,ChIJGQgcPzKbbg0RzIRPGGdsJ6o
3356,"Calle Maestra, 134, 23100 Mancha Real, Jaén, Spain",37.7863506,-3.6090923,ChIJ_5AqduV6bg0RYxALaxFFgpQ
3354,"Plaza Virgen del Amparo, 7, 23770 Marmolejo, Jaén, Spain",38.0454663,-4.1711365,ChIJA95WmT1PbA0RzxqhipTtzQ4
3352,"Calle Carrera, 19, 23600 Martos, Jaén, Spain",37.7212106,-3.9696036,ChIJB64PhOrFbQ0RkQAWyO4B2Z8
7727,"Paseo de la Estación, 10, 23640 Torre del Campo, Jaén, Spain",37.7714896,-3.8980139,ChIJaYhqgyTQbQ0RR2r8fkP9vmg
2566,"Calle Ginés de Perea, 7, 23650 Torredonjimeno, Jaén, Spain",37.7660498,-3.9559952,ChIJfapMcw3PbQ0RHu75uak_Vyc
7325,"Av. Libertad, 1, 23400 Úbeda, Jaén, Spain",38.0151026,-3.3707026,ChIJCbqKh4fzbg0RE9Clo2zZLYA
3349,"Plaza Andalucía, 3, 23400 Úbeda, Jaén, Spain",38.0109488,-3.3715065,ChIJw7SLn3n0bg0RcU-xHZqrlKc
2559,"Calle Quevedo, 6, 23300 Villacarrillo, Jaén, Spain",38.1157052,-3.0871754,ChIJ0QPA0E8dbw0Rc6jyOfDM7r8
4284,"Calle Jovellanos, S/N - Esq. San Pablo, 29130 Alhaurín de la Torre, Málaga, Spain",36.6606385,-4.5595286,ChIJpYimUNL6cg0RbAdALGESPOg
7881,"Calle Gerald Brenan, S/N, 29120 Alhaurín el Grande, Málaga, Spain",36.6451437,-4.6806076,ChIJZ0Ljz_jmcg0RrPAZBNwPpK8
3365,"Calle Infante Don Fernando, 54, C+P, 29200 Antequera, Málaga, Spain",37.0185559,-4.5617374,EkRDK1AsIENhbGxlIEluZmFudGUgRG9uIEZlcm5hbmRvLCA1NCwgMjkyMDAgQW50ZXF1ZXJhLCBNw6FsYWdhLCBTcGFpbiIfGh0KFgoUChIJ5-i4POCPcg0RGUqArlfRgGISA0MrUA
4785,"Av. Federico García Lorca, 3, 29631 Arroyo de La Miel, Málaga, Spain",36.5916969,-4.5267786,ChIJ8UDz4I_8cg0R79mQuLkPiYY
486,"Av. Antonio Machado, 40, C+P, 29630 Benalmádena, Málaga, Spain",36.5962877,-4.5201205,EkBDK1AsIEF2LiBBbnRvbmlvIE1hY2hhZG8sIDQwLCAyOTYzMCBCZW5hbG3DoWRlbmEsIE3DoWxhZ2EsIFNwYWluIh8aHQoWChQKEgl_0hlnYvxyDRFKSaRNplgnAhIDQytQ
6675,"Calle Maria Zambrano, 29580 Estación de Cártama, Málaga, Spain",36.7369636,-4.6063819,ChIJu7BKzv_ucg0REWPdpVRvUnM
6727,"29680 Estepona, Málaga, Spain",36.4256345,-5.1510261,ChIJ09n2kaXWDA0RzA0t1sXwS4o
2585,"Av. España, 13, 29680 Estepona, Málaga, Spain",36.424902,-5.1445281,ChIJv5oepafWDA0Rv5V36jyT6YA
492,"Plaza de la Constitución, 10, 29640 Fuengirola, Málaga, Spain",36.538652,-4.623075,ChIJ4dZYH2vicg0REKD61OSVAKs
7115,"29640 Fuengirola, Málaga, Spain",36.544148,-4.624943900000001,ChIJI_ovED7icg0R9GIZm1HcWCA
2752,"Los Boliches, 29640 Fuengirola, Málaga, Spain",36.5631965,-4.6042784,ChIJP39iNlTicg0RwcS1ae3mSVE
2735,"Calle Alfonso XIII, 6 Edif. S. Fernando, 29640 Fuengirola, Málaga, Spain",36.5419985,-4.6232805,ChIJwVwpH2vicg0RiTcyIhJYdpk
3370,"Calle, Alameda Colón, 2, 4, 29001 Málaga, Spain",36.7163168,-4.4252145,ChIJb7tDTJT3cg0R5LWAdPtLhCY
4101,"Calle Cuarteles, 43, 29002 Málaga, Spain",36.7125719,-4.4291579,ChIJL0G_g6L3cg0RCy3i74q1dh4
3422,"Calle Tomás Echeverría, 1, 29002 Málaga, Spain",36.7049957,-4.4361805,ChIJDdxoKoL3cg0RYGExiNrsG8U
3089,"Avenida La Paloma, 29003 Málaga, Spain",36.701018,-4.442739,ChIJW3ONaX73cg0RTArBoEJm960
3413,"Camino del Pato, 29004 Málaga, Spain",36.6884367,-4.4518964,ChIJJXWH1dr5cg0RyKnDXB3mKlo
2116,"Av. de Velázquez, 74, C+P, 29004 Málaga, Spain",36.6943684,-4.4530516,EjBDK1AsIEF2LiBkZSBWZWzDoXpxdWV6LCA3NCwgMjkwMDQgTcOhbGFnYSwgU3BhaW4iHxodChYKFAoSCbFr9kLZ-XINEZOkQWN7SLPsEgNDK1A
4100,"Calle Marqués de Larios, 12, 14, 29005 Málaga, Spain",36.7185732,-4.4215721,ChIJ91ZCTJT3cg0RS9rlzaGH5Tc
2341,"Calle Marqués de Larios, 12, 14+C+P, 29005 Málaga, Spain",36.7189432,-4.421613,EjoxNCtDK1AsIENhbGxlIE1hcnF1w6lzIGRlIExhcmlvcywgMTIsIDI5MDA1IE3DoWxhZ2EsIFNwYWluIiIaIAoWChQKEgn7BedMlPdyDRE1rcyS4Eij-RIGMTQrQytQ
4106,"Av. de José Ortega y Gasset, 43, C+P, 29006 Málaga, Spain",36.7109734,-4.4467142,EjtDK1AsIEF2LiBkZSBKb3PDqSBPcnRlZ2EgeSBHYXNzZXQsIDQzLCAyOTAwNiBNw6FsYWdhLCBTcGFpbiIfGh0KFgoUChIJi85vYXD3cg0R0x4djF2nAi4SA0MrUA
3418,"Paseo de los Tilos, 51, C+P, 29006 Málaga, Spain",36.712934,-4.4375994,EjFDK1AsIFBhc2VvIGRlIGxvcyBUaWxvcywgNTEsIDI5MDA2IE3DoWxhZ2EsIFNwYWluIh8aHQoWChQKEgkzn2F1nfdyDREEcEN7bcuXdBIDQytQ
483,"Av. de Andalucía, 16, C+P, 29007 Málaga, Spain",36.7174051,-4.432386999999999,EjBDK1AsIEF2LiBkZSBBbmRhbHVjw61hLCAxNiwgMjkwMDcgTcOhbGFnYSwgU3BhaW4iHxodChYKFAoSCcmDIz6Z93INETA-CVB-njn5EgNDK1A
4102,"Calle Mármoles, 39, 29007 Málaga, Spain",36.7214114,-4.4307611,ChIJL0G_g6L3cg0RXAlTSsYUSqE
3394,"29008 Málaga, Spain",36.7235841,-4.422710299999999,ChIJjaGyXr73cg0RYEd94XvSAxw
4275,"Malaga Hospital Civil, 29011 Málaga, Spain",36.7288888,-4.4344051,ChIJcQ_OiKb3cg0RatQ4-ZYJV2o
468,"Calle Dr. Escassi, S/N, 29010 Málaga, Spain",36.7221352,-4.4397996,ChIJM1mcFQn3cg0RQrUUHisZHTA
3427,"Av. de Carlos Haya, 74, C+P, 29010 Málaga, Spain",36.722692,-4.447837,EjFDK1AsIEF2LiBkZSBDYXJsb3MgSGF5YSwgNzQsIDI5MDEwIE3DoWxhZ2EsIFNwYWluIh8aHQoWChQKEglzBpcTDfdyDRHQV45p-mvYrhIDQytQ
5876,"Calle Frank Capra, 6, L. 2, 29010 Ronda, Málaga, Spain",36.719123,-4.4600792,ChIJxZZqQT73cg0RXhnerzCgh6I
4272,"El Romeral, 29010 Málaga, Spain",36.7223867,-4.476122999999999,ChIJw6eqdzb3cg0RwQ3xjDG8tJc
4108,"Calle Martínez de la Rosa, 167, 29010 Málaga, Spain",36.7276394,-4.442475,ChIJM1mcFQn3cg0Ry75d0fBU7ms
484,"Calle Ntra. Sra. de los Clarines, 8, 29011 Málaga, Spain",36.72990000000001,-4.4393,ChIJy19fOgj3cg0RLhQoV_e65BQ
4107,"29012 Málaga, Spain",36.7279999,-4.4124219,ChIJK9_UxMb3cg0RgEd94XvSAxw
4274,"Calle, Alameda de Capuchinos, 73, 29013 Málaga, Spain",36.7322343,-4.417385299999999,ChIJgdWa48f3cg0RYKYPCzDiMDg
1635,"Calle Emilio Thuillier, 56, 29014 Málaga, Spain",36.7448628,-4.4218619,ChIJNUWYE0v2cg0R89BUgBM4gE0
3066,"Calle Lorenza Correa, 48, 29014 Málaga, Spain",36.7399198,-4.422587,ChIJDUb7ZLT3cg0Ry0TT20FCSE8
4109,"Paseo de Sancha, 2, 29016 Málaga, Spain",36.7213107,-4.4051961,ChIJgQUYd-f3cg0RkNT3RNM9Efw
3368,"Av. Juan Sebastián Elcano, 154, 154+C+P, 29017 Málaga, Spain",36.7218586,-4.3644913,Ej4xNTQrQytQLCBBdi4gSnVhbiBTZWJhc3Rpw6FuIEVsY2FubywgMTU0LCAyOTAxNyBNw6FsYWdhLCBTcGFpbiIjGiEKFgoUChIJHw-DsTdYcg0RM3jEru_E3MQSBzE1NCtDK1A
6839,"Heliomar, 29140 Málaga, Spain",36.6627444,-4.5025129,ChIJbZQHZ0j6cg0RuRdgCtkg068
4105,"Calle Lope de Rueda, 93, 29190 Málaga, Spain",36.7399539,-4.4829133,ChIJnz9nnNXwcg0RYeMpW6CjI-A
6872,"Calle Jumillano, S/N (Campanillas), 29590 Málaga, Spain",36.7286632,-4.5466073,ChIJ35XwSzfwcg0RpzBDC-pHj6Q
6889,"N-340, San Luis de Sabinillas, Málaga, Spain",36.3676563,-5.2276638,Ei1OLTM0MCwgU2FuIEx1aXMgZGUgU2FiaW5pbGxhcywgTcOhbGFnYSwgU3BhaW4iLiosChQKEgkNXqLM71qhEhGi1ymx9YcCMhIUChIJ6VMJo3_aDA0RW8W5c15DLSI
3028,"29610 Ojén, Málaga, Spain",36.5654302,-4.8553046,ChIJeXiNPabZcg0RtcDmi8QCnJk
4135,"Plaza África, 1, 29600 Marbella, Málaga, Spain",36.5095467,-4.8855273,ChIJHxQ6f_gncw0RZKnbLXfBU3o
3016,"Av. Ricardo Soriano, 31, 29600 Marbella, Málaga, Spain",36.5101265,-4.891535699999999,ChIJw0LlZQDYcg0RTdFpeurmQ8M
7105,"Av. Severo Ochoa, 39, C+P, 29603 Marbella, Málaga, Spain",36.5093827,-4.877936,EjlDK1AsIEF2LiBTZXZlcm8gT2Nob2EsIDM5LCAyOTYwMyBNYXJiZWxsYSwgTcOhbGFnYSwgU3BhaW4iHxodChYKFAoSCfcHQf31J3MNEU-vW79XuWhoEgNDK1A
4141,"Calle Ur. Guadaiza, Ed. Albatros, 29660, Málaga, Spain",36.4875543,-4.9563367,ChIJeetJXuopcw0RMFctM_-KwKQ
1078,"Nueva Andalucía, 29660 Marbella, Málaga, Spain",36.4923752,-4.951609599999999,ChIJHxR4V_kpcw0RmcZtvo0j94k
6647,"Calle Antonio Machado, 0, 29651 Las Lagunas de Mijas, Málaga, Spain",36.5445358,-4.642248599999999,ChIJXwSzHSHicg0RoD2KIHLIwn8
7012,"Av. Antonio Arroyo Blanco, 5, 29649 La Cala de Mijas, Málaga, Spain",36.50607,-4.6857729,ChIJT6ASsDIecw0RwTpn7MRDzc4
4290,"Urb. Sitio de Calahonda, 201B, 29649 Mijas, Málaga, Spain",36.48935,-4.715752999999999,ChIJQ26YUGogcw0R8mvItDiI_sQ
3416,"Calle Diputación Provincial, 4, 29780 Nerja, Málaga, Spain",36.7455359,-3.8786281,ChIJhaZd0RMlcg0RGyh5bIMIrZo
4277,"La Campana, 29660 Marbella, Málaga, Spain",36.498902,-4.973866999999999,ChIJG0uCHvkpcw0R7t799ooR7xA
7113,"Av. del Mediterráneo, 131, 29730 Rincón de la Victoria, Málaga, Spain",36.7152376,-4.2839431,ChIJP_qrgm1acg0RoryRjbsoPUw
3412,"29400 Ronda, Málaga, Spain",36.746209,-5.161225099999999,ChIJeaJY4kMxDQ0RoluaNCGANZQ
4136,"Calle Lagasca, 64, 29670 San Pedro Alcántara, Málaga, Spain",36.482835,-4.989587300000001,ChIJXx5lLRYqcw0RpucMmtXsV4A
464,"Paseo Larios, 7, 29740 Torre del Mar, Málaga, Spain",36.7414599,-4.09295,ChIJwXXcV7xHcg0RJR1PQp_TBys
481,"Plaza Costa del Sol, 9, C+P, 29620 Torremolinos, Málaga, Spain",36.6250017,-4.4994765,Ej9DK1AsIFBsYXphIENvc3RhIGRlbCBTb2wsIDksIDI5NjIwIFRvcnJlbW9saW5vcywgTcOhbGFnYSwgU3BhaW4iHxodChYKFAoSCWFgXCbt-3INEbjj0MqjB0hOEgNDK1A
6638,"Paseo del Colorado, 8, 29620 Torremolinos, Málaga, Spain",36.6304163,-4.4939111,ChIJEyu-o-n7cg0RWMDpg4LMnT4
4103,"29620 Torremolinos, Málaga, Spain",36.6265566,-4.5160396,ChIJR4IEy537cg0RkEp94XvSAxw
6351,"Calle Casas Nuevas, 29770, Málaga, Spain",36.7329582,-3.9673201,ChIJoacQqBQ6cg0ReU7MuFwCg2I
7363,"Av. Vivar Téllez, 3, 29700 Vélez-Málaga, Málaga, Spain",36.77851,-4.100309999999999,ChIJARF9zCJHcg0RB3abnbJvvsc
488,"Plaza Carmelitas, 8, 29700 Velez, Málaga, Spain",36.7816574,-4.1047809,ChIJWYp0BiRHcg0RwSvCIjy7ZvY
411,"Calle Sta. María, 18A, 41500 Alcalá de Guadaíra, Sevilla, Spain",37.33482679999999,-5.8533123,ChIJIexj0NlkEg0R6BXvShjr0a8
6096,"Av. de la Escultora 'la Roldana', 9, 41500 Alcalá de Guadaíra, Sevilla, Spain",37.34108,-5.82658,ChIJmzy0nbxkEg0RkaH03mUngWA
2365,"Av. Constitucion, Esqu. A Silos, 41500 Alcalá de Guadaíra, Sevilla, Spain",37.3472154,-5.8434046,ChIJ7fntwehkEg0RvW2NA3xOYCI
413,"Plaza Corredera, 4, 41600 Arahal, Sevilla, Spain",37.2621095,-5.5453693,ChIJXUG4mVybEg0R-BhsNKU0bTY
6593,"Plaza de Ntra. Sra. de Cuatrovitas, 3, 41110 Bollullos de la Mitación, Sevilla, Spain",37.3402564,-6.1385559,ChIJfQgZbzoSEg0RNcVCqMXL5u0
6101,"Av. Universidad de Salamanca, 7, C+P, 41930 Bormujos, Sevilla, Spain",37.37092519999999,-6.0829376,EkRDK1AsIEF2LiBVbml2ZXJzaWRhZCBkZSBTYWxhbWFuY2EsIDcsIDQxOTMwIEJvcm11am9zLCBTZXZpbGxhLCBTcGFpbiIfGh0KFgoUChIJXa2qYDkTEg0RUJyTAdm2lIMSA0MrUA
6018,"Av. del Aljarafe, S/N, 41930 Bormujos, Sevilla, Spain",37.3740992,-6.069537299999999,ChIJl3TWHTUTEg0RhYeOGFB7wX4
6798,"Av. Jesús Nazareno, 79, 41730 Las Cabezas de San Juan, Sevilla, Spain",36.9908809,-5.939685799999999,ChIJHS60UdKPDQ0RziOyuwXA9UQ
1640,"Plaza Constitución, 5, 41900 Camas, Sevilla, Spain",37.4014163,-6.0346644,ChIJC6ZhHn1rEg0Rc9ed2TjsfFs
1680,"41320 Cantillana, Seville, Spain",37.6434785,-5.8353837,ChIJX800JdVbEg0RIEynyABkBBw
1750,"Calle San Pedro, 10, 41410 Carmona, Sevilla, Spain",37.4708796,-5.6428786,ChIJH6g2KoOMEg0RlHpnKMvi9kM
3199,"Calle Inés Rosales, 5, 7, 41950 Castilleja de la Cuesta, Sevilla, Spain",37.3852349,-6.0547965,ChIJl9qpVbpsEg0Ruj6VVY0LxCA
6893,"Plaza de Sagunto, 12, 41100 Coria del Río, Sevilla, Spain",37.2845,-6.05098,ChIJj_VuW7lyEg0RSyG_Rs53eVo
2391,"Av. los Pinos equina, Calle Asís, 41089 Dos Hermanas, Sevilla, Spain",37.3383601,-5.932265699999999,ChIJx4Fqi8hvEg0RI_ytZEthKxw
2390,"Calle Canónigo, 104, 41700 Dos Hermanas, Sevilla, Spain",37.2822961,-5.9220822,ChIJX7TTZF5wEg0RotCL1QSrlbw
6837,"Dos Hermanas, Seville, Spain",37.2865803,-5.924239099999999,ChIJVXNflFxwEg0RWXx1BsM1Zx8
3188,"Plaza Constitución, 13, 41700 Dos Hermanas, Sevilla, Spain",37.2838868,-5.9218047,ChIJS4Gkz11wEg0RlknNvohKmI0
2402,"Av. Miguel de Cervantes, 26, A, 41400 Écija, Sevilla, Spain",37.5387686,-5.077821399999999,ChIJ2_1uBaPKEg0RXOFI7_EPug0
7081,"Calle Mesones, 29, 41560 Estepa, Sevilla, Spain",37.2908802,-4.8790409,ChIJx9fcNhpabQ0RinqAjOewDfc
7896,"Calle Real, 7, 41960 Gines, Sevilla, Spain",37.3871899,-6.077439999999999,ChIJY0C2HlATEg0RjZGNwGiNQIg
415,"Calle Sevilla, 1, 41740 Lebrija, Sevilla, Spain",36.9200267,-6.077926799999999,ChIJodF0htDsDQ0RZ5GRZB0-DF8
3168,"Calle Blas Infante, 34, 41440 Lora del Río, Sevilla, Spain",37.65608,-5.53109,ChIJWfHh1rzvEg0Rhbx3d1UV1GU
6546,"Av. de Andalucía, 41, 41510 Mairena del Alcor, Sevilla, Spain",37.3735892,-5.7532163,ChIJCcilrV9iEg0R_MM-Zd18dVg
2658,"Glorieta Ciudad Expo, Local 21, 41927 Mairena del Aljarafe, Sevilla, Spain",37.3509151,-6.0493878,ChIJL3pXriFtEg0RGPumWZlcgqw
4137,"Calle Manuel Rojas Marcos, 32, 41620 Marchena, Sevilla, Spain",37.3295779,-5.4166796,ChIJx4l_eziYEg0RDzjtBcrig98
2094,"Calle Utrera, 80, 41530 Morón de la Frontera, Sevilla, Spain",37.1211079,-5.4592211,ChIJ44COAXNhDQ0Rk-uJqAsFikE
6948,"Carr. Sevilla, 41530, Sevilla, Spain",37.1200733,-5.4850625,ChIJvbJdA9FjDQ0Rjr4oqvh7c4o
4460,"Calle Luis Daoiz, Nº 14, 41530 Morón de la Frontera, Sevilla, Spain",37.1230132,-5.4512366,ChIJf5kBpA5hDQ0RoWeu0ObJZb4
7267,"41804 Olivares, Seville, Spain",37.4686407,-6.142094699999999,ChIJA4vgyGsWEg0REE-nyABkBBw
5811,"Calle Carrera, 52, 41640 Osuna, Sevilla, Spain",37.2396859,-5.1047807,ChIJCTSZkqirEg0RCvTEQI8xX8U
4840,"Plaza España, 13, 41720 Los Palacios y Villafranca, Sevilla, Spain",37.1597881,-5.9275912,ChIJJ6dnKdt3Eg0R9NeL5qfmC9A
7111,"Calle Pineda, 24, 41840 Pilas, Sevilla, Spain",37.3027888,-6.3011148,ChIJtVg1nUobEg0RI0JQBFSYKEM
436,"Calle San José, 69, 41300 San José de la Rinconada, Sevilla, Spain",37.4818428,-5.943586799999999,ChIJ6R1oB9NpEg0ROIn3WFt2jJU
437,"Av. 28 Febrero, 61, 41920 San Juan de Aznalfarache, Sevilla, Spain",37.3590998,-6.0344623,ChIJBx0NrOJsEg0RykO9RNGh3-k
7073,"Calle Juan Delgado, 4, 41800 Sanlúcar la Mayor, Sevilla, Spain",37.3869481,-6.201374899999999,ChIJxwL669MQEg0Ra3ql8ExMr54
477,"Av. de la Constitución, 38, 41001 Sevilla, Spain",37.3833993,-5.9937326,ChIJyYVlZRBsEg0RFE6zmsvnTFs
403,"Calle Reyes Católicos, 15, C+P, 41001 Sevilla, Spain",37.3881776,-6.0004329,EjVDK1AsIENhbGxlIFJleWVzIENhdMOzbGljb3MsIDE1LCA0MTAwMSBTZXZpbGxhLCBTcGFpbiIfGh0KFgoUChIJWc9QNRJsEg0RuKWlYS3To84SA0MrUA
6000,"Calle Granada, 1, C+P, 41001 Sevilla, Spain",37.3891401,-5.9947591,EitDK1AsIENhbGxlIEdyYW5hZGEsIDEsIDQxMDAxIFNldmlsbGEsIFNwYWluIh8aHQoWChQKEgkpHxxpEGwSDRE6MN0cVK6MjBIDQytQ
6005,"Calle las Cortes, 2, C+P, 41002 Sevilla, Spain",37.3943076,-5.996179,Ei5DK1AsIENhbGxlIGxhcyBDb3J0ZXMsIDIsIDQxMDAyIFNldmlsbGEsIFNwYWluIh8aHQoWChQKEgn_V6EED2wSDRFiQCL7wyGNNxIDQytQ
401,"Pl. de la Encarnación, 18, C+P, 41003 Sevilla, Spain",37.3932434,-5.9913012,EjVDK1AsIFBsLiBkZSBsYSBFbmNhcm5hY2nDs24sIDE4LCA0MTAwMyBTZXZpbGxhLCBTcGFpbiIfGh0KFgoUChIJnfAkHQVsEg0Rg2sAj80algkSA0MrUA
3293,"Calle Recaredo, 23, C+P, 41003 Sevilla, Spain",37.3912313,-5.9843647,Ei1DK1AsIENhbGxlIFJlY2FyZWRvLCAyMywgNDEwMDMgU2V2aWxsYSwgU3BhaW4iHxodChYKFAoSCeFBy04dbBINEQwhwxvoAjy_EgNDK1A
3311,"Av. de Ramón y Cajal, 41, C+P, 41005 Sevilla, Spain",37.3758546,-5.9687054,EjRDK1AsIEF2LiBkZSBSYW3Ds24geSBDYWphbCwgNDEsIDQxMDA1IFNldmlsbGEsIFNwYWluIh8aHQoWChQKEglBPAgxkW4SDRF9Adcxli-_2xIDQytQ
3291,"Av. San Francisco Javier, 1, 1+C+P, 41005 Sevilla, Spain",37.382406,-5.9729247,EjgxK0MrUCwgQXYuIFNhbiBGcmFuY2lzY28gSmF2aWVyLCAxLCA0MTAwNSBTZXZpbGxhLCBTcGFpbiIhGh8KFgoUChIJEwV0saJuEg0R8BiRHeSp4Q4SBTErQytQ
405,"Av. de la Cruz del Campo, 1, 2+C+P, 41005 Sevilla, Spain",37.3871984,-5.9649619,EjgyK0MrUCwgQXYuIGRlIGxhIENydXogZGVsIENhbXBvLCAxLCA0MTAwNSBTZXZpbGxhLCBTcGFpbiIhGh8KFgoUChIJKQzo1L5uEg0ROVf9YLr3bicSBTIrQytQ
1533,"Plaza Gran Plaza, 1, 41005 Sevilla, Spain",37.3813342,-5.966512199999999,ChIJWXa78ZVuEg0RTYlNIRQHqjA
407,"Calle Párroco Antonio Gómez Villalobos, 87, 41006 Sevilla, Spain",37.3712155,-5.9584397,ChIJe2-rc_JuEg0Ryp8SDKOE_tc
6074,"Calle Baena, 5, Local 1, 41006 Sevilla, Spain",37.3771695,-5.9399297,ChIJ986s6B1vEg0RgVY2Q147irw
6010,"Calle Puerto del Escudo, 1, C+P, 41006 Sevilla, Spain",37.3760057,-5.954616499999999,EjVDK1AsIENhbGxlIFB1ZXJ0byBkZWwgRXNjdWRvLCAxLCA0MTAwNiBTZXZpbGxhLCBTcGFpbiIfGh0KFgoUChIJnf_a3e5uEg0RJa_i-V6VlKISA0MrUA
6117,"Sevilla Santa Justa, Av. de Kansas City, S/N, 41007 Sevilla, Spain",37.3931893,-5.9737897,ChIJXWB_6a9uEg0RK1AYptyBsk0
3288,"Calle Tarso, 23, 41007 Sevilla, Spain",37.3936425,-5.963220199999999,ChIJUZ9v7LduEg0R6_9hofeNrow
404,"Calle, Ronda de Capuchinos, 19, 41008 Sevilla, Spain",37.3995901,-5.982307500000001,ChIJO94WZKpuEg0Rnukw5XWZPEM
5810,"Calle Arroyo, 56, 41008 Sevilla, Spain",37.3965423,-5.9784722,ChIJ7aDDQ6luEg0Rpe68hJeLp0g
7706,"Avenida Ronda de Pio XII, 2, C+P, 41008 Sevilla, Spain",37.4057815,-5.9753969,EjZDK1AsIEF2ZW5pZGEgUm9uZGEgZGUgUGlvIFhJSSwgMiwgNDEwMDggU2V2aWxsYSwgU3BhaW4iHxodChYKFAoSCUWBlpVTaRINERxR5-oHEHAyEgNDK1A
478,"Av. de la Barzola, 41008 Sevilla, Spain",37.4108138,-5.977356599999999,EidBdi4gZGUgbGEgQmFyem9sYSwgNDEwMDggU2V2aWxsYSwgU3BhaW4iLiosChQKEgnnAGbbUGkSDRH0TT3jr8mwYxIUChIJS-6NiEZpEg0RsFGnyABkBBw
6008,"Calle Baltasar de Alcázar & Av. Alcalde Manuel del Valle, 41008 Sevilla, Spain",37.4001613,-5.9694182,Ek9DYWxsZSBCYWx0YXNhciBkZSBBbGPDoXphciAmIEF2LiBBbGNhbGRlIE1hbnVlbCBkZWwgVmFsbGUsIDQxMDA4IFNldmlsbGEsIFNwYWluImYiZAoUChIJGVuFqLNuEg0RD4VHyNYWooASFAoSCRlbhaizbhINEQ-FR8jWFqKAGhQKEgn1gjSZtG4SDRG-BxhVboILnhoUChIJBbbJTExpEg0R_b6A0TP4vRgiCg3Nz0oWFZojcfw
7071,"Calle Resolana, 4, 41009 Sevilla, Spain",37.4031514,-5.9895764,ChIJbRL9vvhrEg0RRfsyLSIcztg
7116,"Calle San Jacinto, 106, C+P, 41010 Sevilla, Spain",37.3814083,-6.0088986,EjFDK1AsIENhbGxlIFNhbiBKYWNpbnRvLCAxMDYsIDQxMDEwIFNldmlsbGEsIFNwYWluIiMaIQoaEhgKFAoSCRP-ID1qbBINEfdkDSA81_wvEGoSA0MrUA
6001,"Calle San Jorge, 1, 41010 Sevilla, Spain",37.3850846,-6.003665499999999,ChIJzcbmpRRsEg0Rb4qO0-uA0J8
5897,"Calle, Ronda de Triana, 14, 41010 Sevilla, Spain",37.38671,-6.011262899999999,ChIJ4f978m5sEg0RkUSu5W9I86M
3191,"Av. de la República Argentina, 29, 29+C+P, 41011 Sevilla, Spain",37.37695739999999,-6.0028108,EkAyOStDK1AsIEF2LiBkZSBsYSBSZXDDumJsaWNhIEFyZ2VudGluYSwgMjksIDQxMDExIFNldmlsbGEsIFNwYWluIiIaIAoWChQKEgnBW4MOP2wSDRE4_Sfs0ZoAXBIGMjkrQytQ
6947,"García Morato (Carlos Haya), 41011 Sevilla, Spain",37.367754,-6.007922199999999,ChIJn0jb7EhsEg0Rt_G4_t8NgWw
406,"Calle Virgen de Luján, 24, 41011 Sevilla, Spain",37.3748496,-5.9992129,ChIJ3y-l_ztsEg0RuhJ-rItkbzg
7039,"Calle Asunción, 25, C+P, 41011 Sevilla, Spain",37.3774222,-5.9975464,Ei5DK1AsIENhbGxlIEFzdW5jacOzbiwgMjUsIDQxMDExIFNldmlsbGEsIFNwYWluIh8aHQoWChQKEgnR3JVLPGwSDRGcR0lj3ko9FBIDQytQ
6121,"Av. de Alemania, S/N, 41012 Sevilla, Spain",37.3456415,-5.9789591,ChIJA1Iv6HZuEg0RYWxHrByur4A
1606,"Calle Felipe II, 12, C+P, 41013 Sevilla, Spain",37.3717489,-5.9830035,Ei5DK1AsIENhbGxlIEZlbGlwZSBJSSwgMTIsIDQxMDEzIFNldmlsbGEsIFNwYWluIh8aHQoWChQKEglbkgJenW4SDRHn2t4W53m19BIDQytQ
3299,"Calle Jose Saramago, 25, 41013 Sevilla, Spain",37.37346,-5.97378,ChIJj_Nc9ZpuEg0RiRLRAoNrMcA
6204,"Av. de la Palmera, 61, 63, 41013 Sevilla, Spain",37.35717,-5.979769999999999,ChIJ0dcItX9uEg0RR-PhrC32iT8
5819,"Ramon Carande, 14, 41013 Sevilla, Spain",37.37009949999999,-5.9783935,ChIJj_Nc9ZpuEg0RH8SMBvchsR8
438,"Calle Guadalajara, 70, 41014 Sevilla, Spain",37.3221694,-5.967391999999999,ChIJicz_nx5uEg0RTbxTpvGzpUM
5818,"Calle Estafeta, 13-15, 41015 Sevilla, Spain",37.4160843,-5.9689041,ChIJ_Xv_BUVpEg0RqZka1fvvqIY
2212,"Calle Corral de los Olmos &, Calle Corral del Agua, 41015 Sevilla, Spain",37.4188943,-5.9731849,ChIJJ3b0OkNpEg0RQJAZiCHX5BI
3171,"Av, Calle Luis Montoto, 65, 41018 Sevilla, Spain",37.3876443,-5.9765928,ChIJY78yDKRuEg0RcAQEZhOVdtM
5807,"Calle Camilo José Cela, 3, 41018 Sevilla, Spain",37.3803305,-5.975090499999999,ChIJX2TgYJhuEg0RjgHU-prKD7U
439,"Av. Ciudad de Chiva, S-N, 41019 Sevilla, Spain",37.4098039,-5.9253893,ChIJXYzl-ctoEg0RRPxuDkAE_sc
6012,"Av. de las Ciencias, 40, 41020 Sevilla, Spain",37.4037176,-5.9275981,ChIJr2T7cjhvEg0Rl1m2l3BbkCE
4843,"41020 Seville, Spain",37.4212157,-5.9251211,ChIJYfZyTLhoEg0RYGmnyABkBBw
412,"Calle Rey Juan Carlos I, 8, 41340 Tocina, Sevilla, Spain",37.6095943,-5.7339876,ChIJixgRwp5YEg0RCtvELxPTsxo
7941,"Tomares, Seville, Spain",37.375855,-6.0450059,ChIJ2Ttd_8BsEg0RbculnGotAfg
2093,"Calle Navarro Caro, 30, 41940 Tomares, Sevilla, Spain",37.3751951,-6.0475431,ChIJm3_GLcBsEg0RSvmKK8AWBuw
6469,"Av. María Auxiliadora, 41, C+P, 41710 Utrera, Sevilla, Spain",37.1848832,-5.7804867,Ej1DK1AsIEF2LiBNYXLDrWEgQXV4aWxpYWRvcmEsIDQxLCA0MTcxMCBVdHJlcmEsIFNldmlsbGEsIFNwYWluIh8aHQoWChQKEgm3VoZbDn8SDRFYLpFrp5mHIBIDQytQ
6460,"Plaza de la Constitución, 9, 41710 Utrera, Sevilla, Spain",37.1816058,-5.7830074,ChIJp0P4dBJ_Eg0RwUQpWGS14Tk
6795,"El Viso del Alcor, Seville, Spain",37.3886862,-5.721781099999999,ChIJlxNDo9yJEg0RBWwsV-RDVFg
83,"Av. Pirenaica, 12, 22330 Aínsa, Huesca, Spain",42.4152951,0.1409503,ChIJozcAZcj6pxIRZLGBvHug2lc
756,"Calle General Ricardos, 6, 22300 Barbastro, Huesca, Spain",42.0363015,0.1266973,ChIJD7FDm-GEpxIRr_GNfoppHCo
9908,"22533 Belver de Cinca, Huesca, Spain",41.6920452,0.1787657,ChIJfQ9gCyVvpxIRzYQ62jlM77E
1510,"Calle San Pedro, 0, 22440 Benasque, Huesca, Spain",42.603209,0.5225615,ChIJMXrVgTR5qBIRhBdDG0yGLfE
1329,"Av. de Aragon, 35, C+P, 22500 Binéfar, Huesca, Spain",41.8503766,0.2936318,EjVDK1AsIEF2LiBkZSBBcmFnb24sIDM1LCAyMjUwMCBCaW7DqWZhciwgSHVlc2NhLCBTcGFpbiIfGh0KFgoUChIJ3XdK3bF0pxIRnz3gJtYumRASA0MrUA
753,"Av. de Madrid, 44, 22520 Fraga, Huesca, Spain",41.52162819999999,0.3372512,ChIJ_1WPWNU-pxIRj-ZhUQi-Phk
2947,"Calle Joaquín Costa, 20, C+P, 22003 Huesca, Spain",42.1420634,-0.4110822,EjJDK1AsIENhbGxlIEpvYXF1w61uIENvc3RhLCAyMCwgMjIwMDMgSHVlc2NhLCBTcGFpbiIfGh0KFgoUChIJ9yrGnzREWA0RzFHdMJ1Rk7ASA0MrUA
2945,"Calle Ángel Samblancat, 36, 22430 Graus, Huesca, Spain",42.1915405,0.3388364,ChIJkUqpM_--pxIRxoRLuQaXLMc
3105,"Calle, Travesía Ballesteros, 15, 22001 Huesca, Spain",42.1370858,-0.401773,ChIJHSxydDhEWA0RgfMvxbleK70
3107,"Calle Zaragoza, 4, 22002 Huesca, Spain",42.1354961,-0.4087317,ChIJTbkRPkpEWA0R06zCrj8Zri0
3131,"Calle Gral. Lasheras, 23, 22003 Huesca, Spain",42.1376272,-0.4161102,ChIJ4z4EBjVEWA0Rp_KVuUhNxU4
737,"Calle Mayor, 25, 22700 Jaca, Huesca, Spain",42.56939,-0.54957,ChIJ_ZoJq-yAVw0RYeWct_fsYRw
1334,"Plaza Mayor, 10, 22400 Monzón, Huesca, Spain",41.91093490000001,0.1917637,ChIJe9ZvDS52pxIRSM-VyCxTTtQ
358,"Calle de Serrablo, 59, 22600 Sabiñánigo, Huesca, Spain",42.5183161,-0.3666914,ChIJcX7t9NAgWA0RGONODQRwPT8
5934,"Av. de Fraga, 10, 22200 Sariñena, Huesca, Spain",41.7923865,-0.1555661,ChIJD0DzrIWPWA0ReHdHZZFKIpU
6207,"Paseo del Hortaz, 9, 22550 Tamarite de Litera, Huesca, Spain",41.8693428,0.420359,ChIJPcNq0PoIpxIRsko95DEk1mk
751,"Calle Jeronimo Blasco, 22, 44600 Alcañiz, Teruel, Spain",41.050709,-0.1312549,ChIJo_9Pn0JbXw0R7Csfzazqzek
752,"Calle, Av. San Jorge, 31, 44500 Andorra, Teruel, Spain",40.9773389,-0.4464908,ChIJPWOUEUo9Xw0RUaa4-tfuIio
4390,"Calle Ramón y Cajal, 14, 44001 Teruel, Spain",40.3416313,-1.1073509,ChIJIdC4OQhzXg0Rj8uCjDOQkmU
2311,"Av. de Sagunto, 34, 44002 Teruel, Spain",40.3349056,-1.1030933,ChIJdbApzwRzXg0R8y6cGcd16NU
1332,"Plaza Fernando el Católico, 9, 50630 Alagón, Zaragoza, Spain",41.7690154,-1.1192639,ChIJ2ahZwkZ7WQ0Rnrf0CX52PDE
1457,"50100 La Almunia de Doña Godina, Zaragoza, Spain",41.4768441,-1.3746587,ChIJC0Gj6HnvWw0RyM_oTGLgcX8
1893,"Calle Joaquín Costa, 1, 50540 Borja, Zaragoza, Spain",41.8339655,-1.5331163,ChIJ4UThd-O1Ww0REsRHYfiVrhI
1375,"Calle Ote., 3, 50246 Brea de Aragón, Zaragoza, Spain",41.5227756,-1.6002684,ChIJWTNqp6eWWw0RdrZyQjh5Yfk
736,"Paseo Cortes de Aragón, 21, 50300 Calatayud, Zaragoza, Spain",41.3520845,-1.6406775,ChIJ3xQsQyqPWw0R-Qz_5Yfyhsg
1870,"Calle Mayor, 26, 50700 Caspe, Zaragoza, Spain",41.2362306,-0.0385269,ChIJp8PDo1RUXw0RAxrC3z-RHgQ
759,"Paseo del Muro, 30, 50600 Ejea de los Caballeros, Zaragoza, Spain",42.1265672,-1.1393445,ChIJZ5or9zOJWQ0RTJrdCV9D7Gk
757,"Calle Dr. Zamenhoff, 2, 50740 Fuentes de Ebro, Zaragoza, Spain",41.5126187,-0.6303209,ChIJ1RN0Ly4nWQ0RgoHzvAtZj7w
6944,"Carr. del Aeropuerto, s/n, 50071 Zaragoza, Spain",41.6695088,-1.0200418,ChIJv9NEIJ9oWQ0RWgt8-nZ1C6s
3119,"Carr. de Aranda, 3, 50250 Illueca, Zaragoza, Spain",41.5367747,-1.6273932,ChIJbfhQhuWWWw0R1lhYK0Ya7Dw
1057,"Paseo de la Constitución, 2-4, 50500 Tarazona, Zaragoza, Spain",41.9042889,-1.7253527,ChIJf-PceM2sWw0RN3hZJveV7Lc
1744,"Plaza España, 11, 50660 Tauste, Zaragoza, Spain",41.9212659,-1.2547347,ChIJnZLQxygrWg0RzRfObnDRo3c
6440,"Av. Zaragoza, 33, 50180 Utebo, Zaragoza, Spain",41.7070504,-0.9982389,ChIJpaZng41uWQ0R4oqiYOmctqs
740,"Calle Joaquín Costa, 9, C+P, 50001 Zaragoza, Spain",41.6489097,-0.8808615000000001,EjNDK1AsIENhbGxlIEpvYXF1w61uIENvc3RhLCA5LCA1MDAwMSBaYXJhZ296YSwgU3BhaW4iHxodChYKFAoSCSskQEfvFFkNEVlw3-Uv-Wp9EgNDK1A
2316,"Camino de las Torres, 8, C+P, 50002 Zaragoza, Spain",41.6471514,-0.8729446,EjNDK1AsIENhbWlubyBkZSBsYXMgVG9ycmVzLCA4LCA1MDAwMiBaYXJhZ296YSwgU3BhaW4iHxodChYKFAoSCXUTGxD6FFkNEUlCPahcNaS6EgNDK1A
7944,"Av. Compromiso de Caspe, 48, 50002 Zaragoza, Spain",41.6454106,-0.8648353999999999,ChIJLdq7AlcUWQ0RCdF0908pbSM
6900,"Calle del Coso, 31, 50003 Zaragoza, Spain",41.6527823,-0.8812004999999999,ChIJkxVcf-kUWQ0RCavxMbXKC6Y
6922,"Av. Pablo Gargallo, 76, 50003 Zaragoza, Spain",41.66084439999999,-0.8988421,ChIJ0w0Z5bYUWQ0RT6CuiFt8Fgg
4547,"Plaza de Miguel Salamero, 14, C+P, 50004 Zaragoza, Spain",41.652684,-0.8840515,EjhDK1AsIFBsYXphIGRlIE1pZ3VlbCBTYWxhbWVybywgMTQsIDUwMDA0IFphcmFnb3phLCBTcGFpbiIfGh0KFgoUChIJGR551esUWQ0RVcVJBhs3qdwSA0MrUA
1149,"Paseo Pamplona, 2, C+P, 50004 Zaragoza, Spain",41.6483111,-0.8863148,Ei1DK1AsIFBhc2VvIFBhbXBsb25hLCAyLCA1MDAwNCBaYXJhZ296YSwgU3BhaW4iHxodChYKFAoSCWlRrhzoFFkNER1W2zgAw2L9EgNDK1A
743,"Av. de Valencia, 1, C+P, 50005 Zaragoza, Spain",41.6472698,-0.8939790999999999,Ei5DK1AsIEF2LiBkZSBWYWxlbmNpYSwgMSwgNTAwMDUgWmFyYWdvemEsIFNwYWluIh8aHQoWChQKEgnnVU3R2hRZDRHAZO5BihM5TBIDQytQ
2313,"Paseo de la Gran Vía, 28, C+P, 50005 Zaragoza, Spain",41.6460114,-0.889203,EjVDK1AsIFBhc2VvIGRlIGxhIEdyYW4gVsOtYSwgMjgsIDUwMDA1IFphcmFnb3phLCBTcGFpbiIfGh0KFgoUChIJ29qc49wUWQ0RKX4HKgXobcASA0MrUA
745,"Av. Francisco de Goya, 1, 1+C+P, 50006 Zaragoza, Spain",41.6422096,-0.8866035,EjYxK0MrUCwgQXYuIEZyYW5jaXNjbyBkZSBHb3lhLCAxLCA1MDAwNiBaYXJhZ296YSwgU3BhaW4iIRofChYKFAoSCQ1hz6ngFFkNEVFHdSsiXkHGEgUxK0MrUA
6901,"Calle, Paseo de Fernando el Católico, 5, 7, 50006 Zaragoza, Spain",41.6437528,-0.8919033,ChIJt4GD7tsUWQ0RkcJDIwVlfAw
1059,"50007 Zaragoza, Spain",41.537857,-0.8865833999999999,ChIJX5MU4eZ4WQ0RkNhxYWiMARw
1834,"Calle Cuarta Avenida, 72, 50007 Zaragoza, Spain",41.6246629,-0.8759062,ChIJDztTNw4VWQ0RNsJoFo23h3s
748,"Calle León XIII, 18, 50008 Zaragoza, Spain",41.6459088,-0.8823544999999999,ChIJpe8kaeQUWQ0RUc3lIIOYnEM
6914,"Av. Cesáreo Alierta, 57, C+P, 50008 Zaragoza, Spain",41.6408574,-0.8739361999999999,EjRDK1AsIEF2LiBDZXPDoXJlbyBBbGllcnRhLCA1NywgNTAwMDggWmFyYWdvemEsIFNwYWluIh8aHQoWChQKEgl79JJP_BRZDRFqGXrC7PTzhhIDQytQ
6908,"Av. Tenor Fleta, 55, C+P, 50008 Zaragoza, Spain",41.6392081,-0.8799562999999999,Ei9DK1AsIEF2LiBUZW5vciBGbGV0YSwgNTUsIDUwMDA4IFphcmFnb3phLCBTcGFpbiIfGh0KFgoUChIJz3fAXOIUWQ0RdCN_4GW14vcSA0MrUA
6923,"Calle Sta. Joaquina de Vedruna, 46, 50008 Zaragoza, Spain",41.6438651,-0.8800863,ChIJVWWKaeQUWQ0R1ONcm7eVkJs
6936,"Av. Juan Carlos I, 41, 43+C+P, 50009 Zaragoza, Spain",41.6403309,-0.9081056000000001,EjQ0MytDK1AsIEF2LiBKdWFuIENhcmxvcyBJLCA0MSwgNTAwMDkgWmFyYWdvemEsIFNwYWluIiIaIAoWChQKEgm70fWpK2tZDRGP6Zy3RRSIRRIGNDMrQytQ
739,"Calle, Paseo de Fernando el Católico, 62, 50009 Zaragoza, Spain",41.6387514,-0.8973328,ChIJWxhpwNcUWQ0RDW1-23ro71g
2318,"Av. de Juan Pablo II, 12, C+P, 50009 Zaragoza, Spain",41.6436184,-0.9125902,EjRDK1AsIEF2LiBkZSBKdWFuIFBhYmxvIElJLCAxMiwgNTAwMDkgWmFyYWdvemEsIFNwYWluIh8aHQoWChQKEgkFJmreLmtZDRG3NfL7zder4BIDQytQ
6916,"Calle Duquesa Villahermosa, 40-42, 50010 Zaragoza, Spain",41.6481607,-0.9034626,ChIJhdiGd80UWQ0RbubiZB4LnKY
741,"Av. de Madrid, 123, 50010 Zaragoza, Spain",41.6537295,-0.9022707,ChIJ8fmE1toUWQ0RaRhUWgvoW0U
6909,"50010 Zaragoza, Spain",41.6537699,-0.9020843,ChIJmY-akssUWQ0RQNlxYWiMARw
6109,"Calle de Aldebarán, 56, 50012 Zaragoza, Spain",41.6417469,-0.9336384,ChIJd0A5pRxrWQ0RNtdKVpoDgA0
2270,"Calle de José Oto, 24-26, 50014 Zaragoza, Spain",41.6623691,-0.862428,ChIJ51xdTWEUWQ0RwuB5aFDQTbE
4938,"Plaza de San Gregorio, 56, 60, 50015 Zaragoza, Spain",41.6606756,-0.8761094,ChIJ93Ve7Y0UWQ0RewxrbpsBbq8
6938,"Av. de Salvador Allende, 16, 50015 Zaragoza, Spain",41.6696256,-0.8765691,ChIJ8SvXL4UUWQ0Rcu6_2bVpDj4
6336,"Av. de Sta. Isabel, 82, 50016 Zaragoza, Spain",41.6668355,-0.8321533,ChIJC-9B3BwUWQ0RlI44O1TB8pk
4948,"Av. de Madrid, 285, 285+C+P, 50017 Zaragoza, Spain",41.6500533,-0.9169450000000001,EjIyODUrQytQLCBBdi4gZGUgTWFkcmlkLCAyODUsIDUwMDE3IFphcmFnb3phLCBTcGFpbiIjGiEKFgoUChIJRV5tWzprWQ0RRAGaX37We00SBzI4NStDK1A
4538,"Calle Argel, 37, C+P, 50017 Zaragoza, Spain",41.6516649,-0.9097438,EitDK1AsIENhbGxlIEFyZ2VsLCAzNywgNTAwMTcgWmFyYWdvemEsIFNwYWluIh8aHQoWChQKEgldXAvvM2tZDRFYERgouQLltxIDQytQ
6924,"Calle Gertrudis Gómez de Avellaneda, 57, C+P, 50018 Zaragoza, Spain",41.67185509999999,-0.8910779999999999,EkRDK1AsIENhbGxlIEdlcnRydWRpcyBHw7NtZXogZGUgQXZlbGxhbmVkYSwgNTcsIDUwMDE4IFphcmFnb3phLCBTcGFpbiIfGh0KFgoUChIJL6JJ96MUWQ0RBnOSOE8CQSMSA0MrUA
6925,"Calle Ildefonso Manuel Gil, 19, 50018 Zaragoza, Spain",41.6717603,-0.8863228999999999,ChIJUVU1vG3mWw0RBy17bRGLqC8
4964,"Calle de José Luis Borau, 23, 50018 Zaragoza, Spain",41.6749085,-0.8866993999999999,ChIJ8Sfzf58UWQ0RDRo5XbQ5QUs
2315,"Carr. de Huesca, S/N, 50090 Zaragoza, Spain",41.7005444,-0.8707596999999999,ChIJexDdvqATWQ0RzJVqUNIxEIs
749,"Calle San Pedro, 23, 50800 Zuera, Zaragoza, Spain",41.868822,-0.7868046,ChIJUTCgnvwIWQ0Ra4r2LKm3mjY
98,"Plaza la Constitución, 6, 39610 Astillero, Cantabria, Spain",43.4001875,-3.8206311,ChIJX-sM9d01SQ0Rqi8W78H2CWo
1558,"Av. de Cantabria, 9, 39500 Cabezón de la Sal, Cantabria, Spain",43.30805369999999,-4.234865699999999,ChIJMZ6RIiAOSQ0RVmsvShsjYEg
4663,"Calle de la Ronda, 36, 39700 Castro Urdiales, Cantabria, Spain",43.37998,-3.21934,ChIJYSIVNLXzTg0RnHcS-ZRoNSs
1219,"Av. la Constitución, 2, 39700 Castro Urdiales, Cantabria, Spain",43.3823713,-3.2180398,ChIJtUxsM7XzTg0RtqqgYR-tolw
5937,"Calle Heliodoro A, Calle Heliodoro Fernández, 14, 39750 Colindres, Cantabria, Spain",43.3974923,-3.4514138,ChIJvwvAJFLATg0RnoKwBtvkOPo
2125,"Plaza la Constitución, 1, 39400 Los Corrales de Buelna, Cantabria, Spain",43.2597642,-4.068387599999999,ChIJAQDQn1U9SQ0RW7WrHRRPv1M
3020,"Barrio el Puente, 33, 39788 El Puente, Cantabria, Spain",43.3470839,-3.3262173,ChIJQTnVa7zuTg0RtG51qqyoe6w
682,"Calle Garelly de la Cámara, Nº 2, 39770 Laredo, Cantabria, Spain",43.4111817,-3.4149899,ChIJP6EqEJnqTg0RxVKdgg6vSJ0
681,"Av. de la Concordia, 5, 39600 Muriedas, Cantabria, Spain",43.4179116,-3.844866799999999,ChIJGaE-DB42SQ0RHR5HY44dfyQ
7010,"Calle, Paseo Barón de Adzaneta, 18, 39800 Ramales de la Victoria, Cantabria, Spain",43.2549929,-3.4638681,ChIJ2S5RK-LcTg0R50BZEpdF13k
371,"Av. Puente de Carlos III, 6, C+P, 39200 Reinosa, Cantabria, Spain",42.99943500000001,-4.1387357,EkFDK1AsIEF2LiBQdWVudGUgZGUgQ2FybG9zIElJSSwgNiwgMzkyMDAgUmVpbm9zYSwgQ2FudGFicmlhLCBTcGFpbiIfGh0KFgoUChIJw8zIIZfmSA0RLb4Kjz2yrN4SA0MrUA
5390,"Calle Aurelio Diez, 2, 39470 Renedo de Piélagos, Cantabria, Spain",43.3519705,-3.9504851,ChIJxWgyL3E5SQ0RChr90g5_kfc
5728,"Calle, Av. Los Soportales, Nº 9, 39540 San Vicente de la Barquera, Cantabria, Spain",43.3847971,-4.3994021,ChIJhSrLJwqgSQ0RM4la8qGFqTI
5880,"Av, Calle Calvo Sotelo, 17, 39002 Santander, Cantabria, Spain",43.4617351,-3.807680699999999,ChIJMXOdqMtLSQ0RmQHN3nNI_cw
4929,"Calle Lealtad, 19, 39002 Santander, Cantabria, Spain",43.460002,-3.8078688,ChIJxYXWPctLSQ0R_r3bkYJoYX4
2355,"39002 Santander, Cantabria, Spain",43.46081530000001,-3.8076609,ChIJhd4Ga8tLSQ0RQOYfvoX1BBw
1336,"Calle San Emeterio, 1, 39003 Santander, Cantabria, Spain",43.4647477,-3.7970588,ChIJW1cXeLFLSQ0RI-8wL5H6eBc
3800,"Paseo de Pereda, 2, 39004 Santander, Cantabria, Spain",43.461817,-3.805271399999999,ChIJHUIJY8pLSQ0RnmJNhK7EzsQ
2298,"Calle, Paseo del General Dávila, 32, 39005 Santander, Cantabria, Spain",43.4686625,-3.7936496,ChIJHUIJY8pLSQ0RSkxN0MaM8fI
5964,"Calle Gral. Dávila, 306, 39007 Santander, Cantabria, Spain",43.4621019,-3.828541699999999,ChIJM3jNvKhLSQ0RELxllWkds9Q
5884,"Calle Alta, 70, 39008 Santander, Cantabria, Spain",43.4586385,-3.8206817,ChIJcT-pVdNLSQ0Rx2zKUEGH-W8
372,"Calle Marqués de la Hermida, 24, 39009 Santander, Cantabria, Spain",43.4549777,-3.8155817,ChIJKYXawy1KSQ0RY6mbNPUaQPE
3834,"Calle San Fernando, 66, 39010 Santander, Cantabria, Spain",43.4592863,-3.8243193,ChIJt1a84n9JSQ0Rl0YdZeKSo3I
7424,"Calle Vargas, 19, 39010 Santander, Cantabria, Spain",43.4605525,-3.8175929,ChIJK3SfBNNLSQ0REqxmGFSDIus
6765,"Calle los Ciruelos, 16, 18, 39011 Santander, Cantabria, Spain",43.4586912,-3.8514231,ChIJJ1Ha6glJSQ0RMXUdvnqKnN8
2353,"Calle Albericia, 5, C+P, 39012 Santander, Cantabria, Spain",43.4619314,-3.836150199999999,EjpDK1AsIENhbGxlIEFsYmVyaWNpYSwgNSwgMzkwMTIgU2FudGFuZGVyLCBDYW50YWJyaWEsIFNwYWluIh8aHQoWChQKEgkD2cNAd0lJDRHg0Agl_7H-yRIDQytQ
2297,"Av. de Cantabria, 11E, C+P, 39012 Santander, Cantabria, Spain",43.47744,-3.79741,Ej1DK1AsIEF2LiBkZSBDYW50YWJyaWEsIDExRSwgMzkwMTIgU2FudGFuZGVyLCBDYW50YWJyaWEsIFNwYWluIh8aHQoWChQKEgnrWGuYvUtJDRF1dsk9kn_rYxIDQytQ
670,"Calle Gral. Salinas, 1, C+P, 39740 Santoña, Cantabria, Spain",43.44265499999999,-3.457053,Ej1DK1AsIENhbGxlIEdyYWwuIFNhbGluYXMsIDEsIDM5NzQwIFNhbnRvw7FhLCBDYW50YWJyaWEsIFNwYWluIh8aHQoWChQKEgmN9c_mnL9ODRFyrJ9Izsk90BIDQytQ
685,"Av. Torrelavega, 2, 39620 Sarón, Cantabria, Spain",43.32583,-3.85249,ChIJAWOSUDwxSQ0RCbFJL8RWZ4Q
6094,"Plaza Francisco Perojo Cagigas, 3, 39710 Solares, Cantabria, Spain",43.3836364,-3.7368302,ChIJf8EKwynLTg0RDiq2cOvFGvo
686,"Calle, Av. Jose Antonio, 14, 39340 Suances, Cantabria, Spain",43.4240001,-4.040427999999999,ChIJv-DhvG9ASQ0RJ1s0vXuvutU
6401,"Av. de Fernando Arce, 27, 39300 Torrelavega, Cantabria, Spain",43.3409723,-4.048769,ChIJ82fVBw0-SQ0RjlnX9hLPSf4
683,"Calle José María Pereda, 17, 39300 Torrelavega, Cantabria, Spain",43.3499086,-4.0510633,ChIJLddZgxQ-SQ0ReZO8HI1oCr8
1405,"Calle Alfonso Rodríguez, 2, 05400 Arenas de San Pedro, Ávila, Spain",40.2091408,-5.090124299999999,ChIJMRakJcWKPw0RzbNGCyDWoAA
960,"Calle Capitán Luis Vara, 5, P+5200, 05200 Arévalo, Ávila, Spain",41.0611037,-4.7195885,EkJQKzUyMDAsIENhbGxlIENhcGl0w6FuIEx1aXMgVmFyYSwgNSwgMDUyMDAgQXLDqXZhbG8sIMOBdmlsYSwgU3BhaW4iIhogChYKFAoSCcX7K1UsyEANEa-6bJEHqYgeEgZQKzUyMDA
170,"Calle Reyes Católicos, 8, C+P, 05001 Ávila, Spain",40.6558692,-4.6994687,EjNDK1AsIENhbGxlIFJleWVzIENhdMOzbGljb3MsIDgsIDA1MDAxIMOBdmlsYSwgU3BhaW4iHxodChYKFAoSCcMre4Ab80ANEbVfCqJL3L-9EgNDK1A
660,"Calle Duque de Alba, 20, P+5001, 05001 Ávila, Spain",40.6559116,-4.691508,EjRQKzUwMDEsIENhbGxlIER1cXVlIGRlIEFsYmEsIDIwLCAwNTAwMSDDgXZpbGEsIFNwYWluIiIaIAoWChQKEgmvXkaqBvNADREL9Qh3nQS2MhIGUCs1MDAx
1418,"Ávila‎, Ávila, Spain",40.656685,-4.6812086,ChIJa0v4WxvzQA0RSq2VuQpF9sA
1417,"San Antonio, TX, USA",29.4241219,-98.49362819999999,ChIJrw7QBK9YXIYRvBagEDvhVgg
1133,"05600 El Barco de Ávila, Ávila, Spain",40.3569063,-5.5236746,ChIJ0--vVt-kPw0R35rUU1a6KLc
1528,"Avenida Principal, 124, 05230 Las Navas del Marqués, Ávila, Spain",40.60264799999999,-4.33408,ChIJHYMX7yIBQQ0Rfb61hxhFaEA
784,"Plaza Arco Isilla, 11, 09400 Aranda de Duero, Burgos, Spain",41.6715961,-3.685419999999999,ChIJ10dU1FwmRA0Rk7sURfndcUk
431,"Av. Castilla, 45, 09400 Aranda de Duero, Burgos, Spain",41.6663325,-3.6907714,ChIJHSqMk1kmRA0R0FZFXpfeEVQ
792,"Plaza Mayor, 12, 09250 Belorado, Burgos, Spain",42.4204143,-3.1905417,ChIJi_b6VBqERQ0R_maxYff5mvU
790,"Calle Justo Cantón Salazar, 5, 09240 Briviesca, Burgos, Spain",42.5508297,-3.3232906,ChIJ6y5ux8hjTw0RTsVRQeBL93s
1501,"Calle Madrid, 2, C+P, 09002 Burgos, Spain",42.3379765,-3.701988399999999,EilDK1AsIENhbGxlIE1hZHJpZCwgMiwgMDkwMDIgQnVyZ29zLCBTcGFpbiIfGh0KFgoUChIJ9QiolNX8RQ0R26zkkPZr2dASA0MrUA
2351,"Calle Vitoria, 7, C+P, 09004 Burgos, Spain",42.34138919999999,-3.6985795,EipDK1AsIENhbGxlIFZpdG9yaWEsIDcsIDA5MDA0IEJ1cmdvcywgU3BhaW4iHxodChYKFAoSCWlo7NDW_EUNEc0f8-51pbD2EgNDK1A
7924,"Av. de la Paz, 5, P+9004, 09004 Burgos, Spain",42.3444176,-3.6949426,Ei1QKzkwMDQsIEF2LiBkZSBsYSBQYXosIDUsIDA5MDA0IEJ1cmdvcywgU3BhaW4iIhogChYKFAoSCSdTPILa_EUNEbyv3ai9vnCOEgZQKzkwMDQ
1758,"Calle Vitoria, 7, 09004 Burgos, Spain",42.3413385,-3.6985748,ChIJxdit4tD8RQ0RQnOU_P-kCy8
884,"11120 New Hampshire Ave #204, Silver Spring, MD 20904, USA",39.037594,-76.990775,ChIJh-pFA5nFt4kRvgx4wcCnHGY
1565,"Calle Condesa Mencía, 121, 09006 Burgos, Spain",42.35928,-3.68125,ChIJoS4EhZT8RQ0Rxr2DozGXWJU
1503,"gamonal, 09007 Burgos, Spain",42.3531481,-3.6682463,ChIJWwqeMKL8RQ0RfZTqygPemIg
1767,"Plaza Sancho García, 22, 09560 Espinosa de los Monteros, Burgos, Spain",43.0759949,-3.5520209,ChIJL2F2Ck4mTw0RFM3fsLUZq68
794,"Paseo de los Mesones, 30, C+P, 09340 Lerma, Burgos, Spain",42.0262415,-3.7605911,EjlDK1AsIFBhc2VvIGRlIGxvcyBNZXNvbmVzLCAzMCwgMDkzNDAgTGVybWEsIEJ1cmdvcywgU3BhaW4iHxodChYKFAoSCaGKk3Dyd0YNEdjdYR1Rg4pGEgNDK1A
785,"Calle Mayor, 85, 09500 Medina de Pomar, Burgos, Spain",42.9316423,-3.486291,ChIJwYcuOec8Tw0RtscZeA-7Jw4
708,"Calle Vitoria, 2, 09200 Miranda de Ebro, Burgos, Spain",42.6853986,-2.9483425,ChIJpVsuubyaTw0Rdc0n8TZvYsU
706,"Av. Comuneros de Castilla, 7, 09200 Miranda de Ebro, Burgos, Spain",42.687235,-2.9433402,ChIJ2y8FM6KaTw0R1b_C9ULEABA
5460,"Plaza Mayor de Sta. María, 12, P+9300, 09300 Roa, Burgos, Spain",41.6969112,-3.9281325,EkBQKzkzMDAsIFBsYXphIE1heW9yIGRlIFN0YS4gTWFyw61hLCAxMiwgMDkzMDAgUm9hLCBCdXJnb3MsIFNwYWluIiIaIAoWChQKEglFfEZG3o9GDRFivkhZtDGFyRIGUCs5MzAw
789,"Calle Julio Danvila, 1-3, 09550 Villarcayo, Burgos, Spain",42.9398078,-3.5719833,ChIJrQ0W95k6Tw0RHruoXs7o4gg
6760,"Calle Doctor Eladio Bustamante, 9, 09580 Villasana de Mena, Burgos, Spain",43.1009456,-3.2827855,ChIJY1At6RYdTw0R3BI6KJmiBHU
692,"Plaza Santocildes, 14, C+P, 24700 Astorga, León, Spain",42.4554901,-6.052575,EjdDK1AsIFBsYXphIFNhbnRvY2lsZGVzLCAxNCwgMjQ3MDAgQXN0b3JnYSwgTGXDs24sIFNwYWluIh8aHQoWChQKEgk_nRf6u2A3DREomYZdWWwohxIDQytQ
1715,"Calle Fernández Cadórniga, 1, 24750 La Bañeza, León, Spain",42.299851,-5.8969235,ChIJ2d6Yu5_QOQ0RGCiaauwfKYc
1498,"24300 Bembibre, León, Spain",42.6173638,-6.4161658,ChIJJZih9rm0MA0RYZg3TDi0dRM
1560,"Calle Emperador Teodosio, 2, 24540 Cacabelos, León, Spain",42.5983324,-6.7264323,ChIJx3eZY22-MA0R-R6JLqTTx2M
1655,"Calle Camino de Santiago, 57, 24410 Camponaraya, León, Spain",42.5805778,-6.670998099999999,ChIJQ8D0RQW8MA0RvLDlHBs00Uc
5908,"Av. la Constitución, 89, 24800 Cistierna, León, Spain",42.80300320000001,-5.1277909,ChIJRVXhq5beNw0RGuoscBqf3hQ
2605,"24420 Fabero, León, Spain",42.7673954,-6.6237322,ChIJuQfj6jXEMA0RRNg_uEojnXM
1135,"Av. Ordoño II, 8, 24001 León, Spain",42.5976751,-5.5734811,ChIJ3VvRZu2aNw0Rx5U_A5ueYMo
2635,"Calle, Av. de Álvaro López Núñez, 3, 24002 León, Spain",42.6027571,-5.5708591,ChIJK5lfPoWaNw0RJESBribU2UU
3330,"Plaza Santo Domingo, 9, C+P, 24002 León, Spain",42.59817839999999,-5.571368199999999,Ei9DK1AsIFBsYXphIFNhbnRvIERvbWluZ28sIDksIDI0MDAyIExlw7NuLCBTcGFpbiIfGh0KFgoUChIJGfj3bJqaNw0RA1NH9x0dP4MSA0MrUA
689,"Av. Lancia, 3, 24004 León, Spain",42.5937351,-5.5729248,ChIJG1KvmpeaNw0RT-GZH4_OO7k
3314,"Av. de los Bordadores, 35, 24006 León, Spain",42.5925072,-5.5608665,ChIJxYTImpeaNw0RMWK1W29XlCg
5903,"Av. de los Reyes Leoneses, 26, C+P, 24008 León, Spain",42.6073574,-5.583929899999999,EjZDK1AsIEF2LiBkZSBsb3MgUmV5ZXMgTGVvbmVzZXMsIDI2LCAyNDAwOCBMZcOzbiwgU3BhaW4iHxodChYKFAoSCT1sRMD0mjcNEXaCqGmwYxlIEgNDK1A
2296,"Av. de Mariano Andrés, 49, 24008 León, Spain",42.6088866,-5.5723528,ChIJFyTAgYiaNw0RJ4emVSc85Lo
3333,"Av. de Antibióticos, 60, 24009 León, Spain",42.5841224,-5.58431,ChIJK7I4CseaNw0RQsmnt3zp03Y
5129,"Calle la Constitución, 89, 24600 La Pola de Gordón, León, Spain",42.8546216,-5.670713999999999,ChIJYz4YsWemNw0R2aiIJJfqnjE
5140,"24400 Ponferrada, León, Spain",42.5510621,-6.6157192,ChIJXaon5pSvMA0R8GlJpQqHBRw
5141,"Flores del Sil, 24400 Ponferrada, León, Spain",42.54172399999999,-6.632115,ChIJlSQomRC7MA0RZBJWisMoRFA
5144,"Av. Compostilla, 16, C+P, 24400 Ponferrada, León, Spain",42.5504443,-6.5979404,EjhDK1AsIEF2LiBDb21wb3N0aWxsYSwgMTYsIDI0NDAwIFBvbmZlcnJhZGEsIExlw7NuLCBTcGFpbiIfGh0KFgoUChIJoe7n7oy6MA0RDyFvcnTcTO8SA0MrUA
5143,"Av. Galicia, 82, 24400 Ponferrada, León, Spain",42.5606612,-6.625151199999999,ChIJGbUpHJa7MA0RF7sjHRnRLOE
5142,"Plaza Virgen de la Encina, 24401 Ponferrada, León, Spain",42.544261,-6.5916824,ChIJfcEJ4pC6MA0RDNMTLLNNyDI
5230,"Calle el Toral, 41, 24380 Puente de Domingo Flórez, León, Spain",42.41139159999999,-6.8196423,ChIJzbCTE7yeMA0RM2EEjBsuaO0
5480,"Calle Ramón y Cajal, 7, 24640 La Robla, León, Spain",42.8025684,-5.6287293,ChIJI0sfvAikNw0Rna3BCuopZQI
5568,"Av. la Constitución, 79, 24320 Sahagún, León, Spain",42.3711788,-5.0284093,ChIJsbTIuS__Rw0RFlqqbxk3Qhs
5845,"Calle Cirilo Santos, 2, 24240 Santa María del Páramo, León, Spain",42.3556695,-5.7484345,ChIJMSXiAMPUOQ0R7UzRTD45cdM
6415,"Calle Alfageme, 12, C+P, 24010 Trobajo del Camino, León, Spain",42.5955188,-5.6078598,Ej9DK1AsIENhbGxlIEFsZmFnZW1lLCAxMiwgMjQwMTAgVHJvYmFqbyBkZWwgQ2FtaW5vLCBMZcOzbiwgU3BhaW4iHxodChYKFAoSCaM3_BgcmzcNEQW4YIrdXaTOEgNDK1A
6490,"24220 Valderas, León, Spain",42.0755703,-5.4384726,ChIJmw4QCvBAOA0ReQxSqA9h1Ow
6530,"Calle Isaac García de Quirós, 31, 24200 Valencia de Don Juan, León, Spain",42.2931627,-5.518427,ChIJ_UBlCv0kOA0RQ23zouwkyyU
694,"Av. el Páramo, 5, 24350 Veguellina de Órbigo, León, Spain",42.4346781,-5.8840505,ChIJZ_SxViF9Nw0RHmLsMQQhPI4
2299,"Avenida Laciana, 15, 24100 Villablino, León, Spain",42.938847,-6.3183621,ChIJoRuI6V4pNw0ROAEXLYIj2qI
1826,"Plaza Mayor, 23, 24500 Villafranca del Bierzo, León, Spain",42.6067875,-6.8091998,ChIJG8EWOUGUMA0RJwTaUcCT5io
698,"Plaza España, 7, 37700 Béjar, Salamanca, Spain",40.3857206,-5.763960099999999,ChIJIRci0A1TPg0RLo_Vh5c71ak
5907,"Plaza Constitución, 3, 37188 Carbajosa de la Sagrada, Salamanca, Spain",40.9327843,-5.6515829,ChIJB0HvmIQmPw0RAdduSE5Ef-Q
697,"Calle Sánchez Arjona, 11, 37500 Cdad. Rodrigo, Salamanca, Spain",40.5970677,-6.5341434,ChIJcSCk33UvPA0RT_Fi2kwAV3c
1922,"Calle Filiberto Villalobos, 87, 37770 Guijuelo, Salamanca, Spain",40.5576318,-5.6729118,ChIJAQAAADACPw0RUAPT2x2Zkvg
5055,"Plaza Constitución, 16, 37300 Peñaranda de Bracamonte, Salamanca, Spain",40.90256249999999,-5.2008661,ChIJI9VxqZRcPw0RycWPeHjTrsc
3726,"Gran Vía, 24, 37001 Salamanca, Spain",40.9657039,-5.6603638,ChIJwZSC6BMmPw0RBWE8GMAPsyQ
5506,"Calle Toro, 19, 37002 Salamanca, Spain",40.9661543,-5.6630972,ChIJoQR9JBQmPw0RYuPdBwV4uKc
2305,"Calle Toro, 67-69, 37002 Salamanca, Spain",40.9684396,-5.660527900000001,ChIJb-FCJBEmPw0RwLZhyTsCqI8
5585,"Paseo del Rollo, 11, 37003 Salamanca, Spain",40.96534130000001,-5.6532306,ChIJv0gvNgwmPw0RrVmW2T4wkKc
699,"Av. de Federico Anaya, 20-22, 37004 Salamanca, Spain",40.9748385,-5.6556343,ChIJocShxxomPw0RPYp_OKYNGhs
5581,"Avenida de Portugal, 59, 37005 Salamanca, Spain",40.9711866,-5.6585101,ChIJN8XOeBAmPw0RIrkIhRA5lwY
5584,"Calle, Puerta de Zamora, Nº 4, 37005 Salamanca, Spain",40.970332,-5.663132999999999,ChIJKybeaBcmPw0RNcGtGJcVjPU
5942,"Calle Valles Mineros, S/N, 37006 Salamanca, Spain",40.9785374,-5.6671887,ChIJEY57_p8oPw0RCEWVWRNfGO8
2301,"Av. de Italia, 67, C+P, 37007 Salamanca, Spain",40.9726211,-5.6687898,Ei5DK1AsIEF2LiBkZSBJdGFsaWEsIDY3LCAzNzAwNyBTYWxhbWFuY2EsIFNwYWluIh8aHQoWChQKEgmNzzflIiY_DRH2lCbe8PE5khIDQytQ
894,"Av. de Villamayor, 30, C+P, 37007 Salamanca, Spain",40.9694375,-5.6690907,EjJDK1AsIEF2LiBkZSBWaWxsYW1heW9yLCAzMCwgMzcwMDcgU2FsYW1hbmNhLCBTcGFpbiIfGh0KFgoUChIJB2nQHj0mPw0RhbM4hNVGapoSA0MrUA
5939,"Paseo Cuatro Calzadas, 39, 43, 37008 Salamanca, Spain",40.947042,-5.671945699999999,ChIJ7w_Kd1wmPw0RvkIJvNRYXCo
5898,"Ctra. Madrid, 75, 37900 Santa Marta de Tormes, Salamanca, Spain",40.9503301,-5.626922899999999,ChIJ2zwW_cglPw0Rxyd1GqNWp6Y
2263,"Plaza Mayor, 5, 37600 Tamames, Salamanca, Spain",40.6585107,-6.1055458,ChIJ1_aNh_SSPg0R2yiOTHROZx4
6811,"Calle Sta. Ana, 13, 37210 Vitigudino, Salamanca, Spain",41.0074124,-6.435565,ChIJ3QZqdjwCPA0RylGafpfTjE8
320,"Plaza Sta. María, 2, 42200 Almazán, Soria, Spain",41.4866354,-2.5325633,ChIJDaH-sfuzRA0Rk4LLSMrBkg4
1328,"Plaza Mayor, 7, C+P, 42300 El Burgo de Osma, Soria, Spain",41.5866107,-3.0671556,EjlDK1AsIFBsYXphIE1heW9yLCA3LCA0MjMwMCBFbCBCdXJnbyBkZSBPc21hLCBTb3JpYSwgU3BhaW4iHxodChYKFAoSCU-tcnMa9UQNEXC7iSB0KRAdEgNDK1A
5652,"Plaza Gral. Yagüe, 14, 42140 S. Leonardo de Yagüe, Soria, Spain",41.8292927,-3.0682128,ChIJITia-w__RA0R9S5vNCYLRlk
6100,"Calle Marqués Vadillo, 4, 42002 Soria, Spain",41.7642934,-2.4679429,ChIJ1f2rKdDSRA0RTBtY8NhUMX4
2294,"Soria, Spain",41.7665972,-2.4790306,ChIJ1yC7dtLSRA0RpeQup6XsdYs
6106,"Plaza España, 47195 Arroyo de la Encomienda, Valladolid, Spain",41.6260057,-4.7731325,ChIJjUmy6qttRw0RCZr_jelw5rM
1991,"Calle González Silva, 8, 47193 Cistérniga, Valladolid, Spain",41.61142359999999,-4.6863918,ChIJC1v4WKcTRw0RhxPb_-wWfuo
728,"Calle Mayor, 22, 47420 Íscar, Valladolid, Spain",41.3605357,-4.5349263,ChIJT2z6umUlRw0RWZu19owJcmk
3287,"Av. Prado Boyal, 9, 47140 Laguna de Duero, Valladolid, Spain",41.5909666,-4.7247205,ChIJrQ6JbVMTRw0Ryf-LlBhp89o
3285,"Av. Madrid, 45, 47140 Laguna de Duero, Valladolid, Spain",41.5814425,-4.7192659,ChIJa9fR5qgURw0RBiqRFE0v8q0
891,"47800 Medina de Rioseco, Valladolid, Spain",41.878304,-5.0494602,ChIJMwgBWb6BRw0RoAhKpQqHBRw
727,"Plaza Mayor de la Hispanidad, 4, 47400 Medina del Campo, Valladolid, Spain",41.30828959999999,-4.915896,ChIJMee2vEdQRw0RLtM-vEQIB2U
723,"Calle Marcos Salgueiro, 6, 47410 Olmedo, Valladolid, Spain",41.288444,-4.6862531,ChIJXz5Nf_U2Rw0Ruz_vZl_QjbY
1734,"Paseo Farolas, 5, 47430 Pedrajas de San Esteban, Valladolid, Spain",41.3409312,-4.5814661,ChIJUYT-aw0wRw0RR0nwtXr20RU
725,"Plaza España, 6, 47300 Peñafiel, Valladolid, Spain",41.5965677,-4.1184493,ChIJEZhV2ZrrRg0RMAulMsW-pF8
5153,"Av. de Segovia, 44, 47160 Arrabal de Portillo, Valladolid, Spain",41.4754881,-4.5935958,ChIJ9Us9sgQ9Rw0RE9CzOIt44u4
731,"Plaza Pepe Zorita, 18, 47100 Tordesillas, Valladolid, Spain",41.5031183,-4.999738499999999,ChIJGezfe5dgRw0RPEnVSs7Ho2A
6428,"Av. de Valladolid, 44, 47320 Tudela de Duero, Valladolid, Spain",41.5876729,-4.5841674,ChIJicySdDUXRw0RBHfKr0GMVJU
720,"47001 Valladolid, Spain",41.64991759999999,-4.7290462,ChIJ67dt6ExtRw0R0A9KpQqHBRw
7206,"Plaza de la Rinconada, 10, C+P, 47001 Valladolid, Spain",41.6533208,-4.7285208,EjdDK1AsIFBsYXphIGRlIGxhIFJpbmNvbmFkYSwgMTAsIDQ3MDAxIFZhbGxhZG9saWQsIFNwYWluIh8aHQoWChQKEgmH0tdbTW1HDRG7X_V1CBPnBxIDQytQ
6550,"Calle Duque de la Victoria, 12, C+P, 47001 Valladolid, Spain",41.6501192,-4.7266324,EjxDK1AsIENhbGxlIER1cXVlIGRlIGxhIFZpY3RvcmlhLCAxMiwgNDcwMDEgVmFsbGFkb2xpZCwgU3BhaW4iHxodChYKFAoSCVdiYT6zEkcNEbi6fwY5ChZiEgNDK1A
2363,"Calle Duque de la Victoria, 12, 47001 Valladolid, Spain",41.6501192,-4.7266324,ChIJcfZhPrMSRw0RC3PVDnTScvs
6553,"Calle de las Angustias, 7, 47003 Valladolid, Spain",41.6544233,-4.723885,ChIJjzxKja0SRw0RiJ6noUVifh0
6564,"Calle Dos de Mayo, 8, C+P, 47004 Valladolid, Spain",41.6468297,-4.724256599999999,EjJDK1AsIENhbGxlIERvcyBkZSBNYXlvLCA4LCA0NzAwNCBWYWxsYWRvbGlkLCBTcGFpbiIfGh0KFgoUChIJS3UZT7QSRw0Ro9sy4jxj0u4SA0MrUA
1923,"Calle Acera de Recoletos, 1, 47004 Valladolid, Spain",41.6480046,-4.7287177,ChIJN13LQkttRw0RZs-21UUoU08
733,"Plaza Circular, s/n, 47001 Valladolid, Spain",41.64775789999999,-4.717646600000001,ChIJu4hD87wSRw0RR3y_UpkBMXU
4641,"Plaza Vadillos, 47005 Valladolid, Spain",41.6511715,-4.7129633,ChIJJcUykbsSRw0RP9UAGdWpcWc
6551,"Paseo de Zorrilla, 41, 47007 Valladolid, Spain",41.6410704,-4.7371715,ChIJ4x1bnDdtRw0RFcTGuAZZTlw
2754,"Paseo de Zorrilla, 161, 47008 Valladolid, Spain",41.6214775,-4.7476046,ChIJXfYDMiVtRw0RUZPCEBajqTQ
6560,"Carr. de Rueda, 31, C+P, 47008 Valladolid, Spain",41.6262681,-4.7416186,EjBDK1AsIENhcnIuIGRlIFJ1ZWRhLCAzMSwgNDcwMDggVmFsbGFkb2xpZCwgU3BhaW4iHxodChYKFAoSCVvVqucmbUcNEb1XlyN0yj3KEgNDK1A
890,"Calle Monjas, 1, 47009 Valladolid, Spain",41.6616794,-4.7345746,ChIJiXvJQ1ZtRw0RKLj2wlZ_iFo
1829,"Calle del Cardenal Torquemada, 26, 47010 Valladolid, Spain",41.6624084,-4.7225297,ChIJZ9JqMaoSRw0RBEY_H28t2d0
6556,"Av. Palencia, 3, 47010 Valladolid, Spain",41.6595287,-4.7193056,ChIJ6VRvz6gSRw0Rey_k3tkAvyU
6562,"Calle de la Cigüeña, 10, 47012 Valladolid, Spain",41.6444959,-4.712435699999999,ChIJ_aTFY7cSRw0RoPMzbYdePXE
6552,"Calle Canterac, 1, C+P, 47013 Valladolid, Spain",41.6419187,-4.7207808,Ei9DK1AsIENhbGxlIENhbnRlcmFjLCAxLCA0NzAxMyBWYWxsYWRvbGlkLCBTcGFpbiIfGh0KFgoUChIJhcUrpMkSRw0RlSJcCcti8l8SA0MrUA
6558,"Calle Embajadores, S-N Esq. Gral. Shelly, 47013 Valladolid, Spain",41.6357377,-4.7223117,ChIJRwXscM4SRw0RN-dSIagSU9c
4632,"Av. de Segovia, 115, 117+C+P, 47013 Valladolid, Spain",41.6385537,-4.7213062,EjUxMTcrQytQLCBBdi4gZGUgU2Vnb3ZpYSwgMTE1LCA0NzAxMyBWYWxsYWRvbGlkLCBTcGFpbiIjGiEKFgoUChIJP96tt84SRw0RzphkFT7nL9QSBzExNytDK1A
6496,"Avda. José Luis Arrese 10 esq. Avda. Salamanca, 47014 Valladolid, Spain",41.65070800000001,-4.738312,ChIJOaLHgUVtRw0RT1PtrvgIrx0
5976,"Calle Manuel Azaña, 57, 47014 Valladolid, Spain",41.6363407,-4.7613522,ChIJm_Msiw5tRw0RXTVUj24kwcc
1605,"Calle Prof. Adolfo Miaja de la Muela, 9, 11, 47014 Valladolid, Spain",41.6359356,-4.7542518,ChIJwfJkIxFtRw0RJ1lOL0Xbd2Q
6344,"Calle del Arroyo, 47610 Zaratán, Valladolid, Spain",41.6605907,-4.7823378,ChIJ1WbLJ3ZyRw0RB_qBGpM1HQw
1230,"Plaza Mayor, 6, 49600 Benavente, Zamora, Spain",42.0036011,-5.678445399999999,ChIJJUPqkmVMOA0RJWGKkjGnHPk
4196,"Calle Atilano Hernández, 2, 49200 Bermillo de Sayago, Zamora, Spain",41.3655087,-6.1121458,ChIJlQFxvSlBOQ0R2kr0MPSaAJ8
5216,"Calle Arrabal, 27, 49300 Puebla de Sanabria, Zamora, Spain",42.0517891,-6.633431799999999,ChIJwQiWCSUWOg0RodtevaKPNO4
6380,"Puerta del Mercado, 22, 49800 Toro, Zamora, Spain",41.5220367,-5.3930655,ChIJ-3WVJdOUOA0RjuxKIZ-yWmI
6682,"Plaza Mayor, 6, 49630 Villalpando, Zamora, Spain",41.8649768,-5.413877600000001,ChIJde-dwgxeOA0RkqwEtfQj9Zk
664,"Plaza Constitución, 3, 49003 Zamora, Spain",41.5047654,-5.744428699999999,ChIJBXaNGjEeOQ0R_uQe6pqgYa8
6832,"Calle Puebla de Sanabria, 1, C+P, 49005 Zamora, Spain",41.5053062,-5.7494847,EjVDK1AsIENhbGxlIFB1ZWJsYSBkZSBTYW5hYnJpYSwgMSwgNDkwMDUgWmFtb3JhLCBTcGFpbiIfGh0KFgoUChIJS4FdtDceOQ0RJq782XkIDHQSA0MrUA
6831,"Av. de Víctor Gallego, 12, 49009 Zamora, Spain",41.5099008,-5.7426601,ChIJZUpHjDoeOQ0RYoYDax4cjW8
6834,"Av. del Cardenal Cisneros, 34, 49029 Zamora, Spain",41.5103498,-5.735388299999999,ChIJvTcYcyYeOQ0Rj4ybrB0cnHI
497,"Calle Modesto Lafuente, 4, 34800 Aguilar de Campoo, Palencia, Spain",42.7930635,-4.2618836,ChIJ9-MOo8_ySA0RztwmggTzU80
2051,"Plaza Fernando Monedero, 11, 34218 Cevico de la Torre, Palencia, Spain",41.85062,-4.40836,ChIJe4AI-7mqRw0R4SkKDlCVmhs
2970,"Calle Mayor, 6, 34880 Guardo, Palencia, Spain",42.7884245,-4.8439834,ChIJxcLcAaU9SA0RFrgWdXd7gUE
496,"Calle Mayor Principal, 64, 34001 Palencia, Spain",42.0096881,-4.5330635,ChIJBejhlkewRw0RVLT2qVGiquE
2264,"Calle Mayor Principal, 7, 34001 Palencia, Spain",42.0131851,-4.5339798,ChIJ3eeGk0ewRw0R1NKiKpUXIrc
1077,"Pl. de España, 3, 34002 Palencia, Spain",42.0028997,-4.5279185,ChIJN1RpEjiwRw0RfmS_IKkTH0E
5754,"Av. de Cuba, 34003 Palencia, Spain",42.0127031,-4.5228662,EiJBdi4gZGUgQ3ViYSwgMzQwMDMgUGFsZW5jaWEsIFNwYWluIi4qLAoUChIJveG4QkuwRw0Ra20JsfndqA0SFAoSCZlHAK_tsEcNETC8SaUKhwUc
4882,"Calle Villacasares, 2, 34003 Palencia, Spain",42.0165668,-4.5320426,ChIJ3eeGk0ewRw0RXcBZTsZuUuY
4883,"Av. San Telmo, 5, 34004 Palencia, Spain",41.9980166,-4.5224418,ChIJxxudai2wRw0RJrhj42mR8UQ
1917,"Plaza del Trigo, 11, 34100 Saldaña, Palencia, Spain",42.5216632,-4.7351205,ChIJ9YlO0lELSA0RvmyO52ET-dg
498,"Calle, Av. Frontera de Haro, 3, 34200 Venta de Baños, Palencia, Spain",41.9206501,-4.488768299999999,ChIJF-k9kq-uRw0Rf_UDlumAQ4U
6752,"Av. Aguilera, 5, 34190 Villamuriel de Cerrato, Palencia, Spain",41.9504797,-4.5139019,ChIJa1pyOlauRw0RiID2zUoEsuA
188,"Calle José Rodao, 2, 40320 Cantalejo, Segovia, Spain",41.2592405,-3.927813,ChIJlxCK4F2yRg0RAgCYGtZVwhU
1139,"Calle Travesía de la Iglesia, 23, 40270 Carbonero el Mayor, Segovia, Spain",41.1222308,-4.2673759,ChIJGVs4JdYtQQ0RD0u2BG6S-jU
187,"Calle San Pedro, 25, 40200 Cuéllar, Segovia, Spain",41.3998256,-4.3121532,ChIJW59cLyvaRg0RVkMcQFnPBbs
1637,"Travesía Alto del León, 10, 40410 San Rafael, Segovia, Spain",40.7133439,-4.1887352,ChIJofxDWy4OQQ0RqGYOf_T9vIs
5730,"Plaza Eleuterio Delgado, 10, 40134 Sangarcía, Segovia, Spain",40.9477367,-4.4149056,ChIJ1x-_G0nfQA0Rc5lEa3UKWQo
5960,"Calle Gobernador Fernández Jiménez, 1, 40001 Segovia, Spain",40.9463912,-4.1191375,ChIJTeCcXt0-QQ0RQ-3YQn7FEyU
3921,"Calle de Jose Zorrilla, 74, 40002 Segovia, Spain",40.939591,-4.1151273,ChIJhxhWjOM-QQ0R1S4CBEIRYO4
5962,"Av. Vía Roma, 31, C+P, 40003 Segovia, Spain",40.9517158,-4.1111749,EixDK1AsIEF2LiBWw61hIFJvbWEsIDMxLCA0MDAwMyBTZWdvdmlhLCBTcGFpbiIfGh0KFgoUChIJJd5GsNg-QQ0RDdJ87vOYiGESA0MrUA
2753,"Av Vicente Aleixandre, 15, 40006 Segovia, Spain",40.930565,-4.101405499999999,ChIJ9z3vzQU_QQ0RgANazvod7Fk
5980,"40300 Sepúlveda, Segovia, Segovia, Spain",41.29744120000001,-3.7488649,ChIJlQAWzQOqRg0RDdZyM4mCp_w
7472,"Calle Real de Abajo, 1, 40213 Vallelado, Segovia, Spain",41.40525,-4.40417,ChIJRXHcmQ8nRw0RIM8XSPTcNHc
1914,"Calle Martínez Villena, 13, 02001 Albacete, Spain",38.9955827,-1.8547982,ChIJGbv6Fr9fZg0R3-WtPfPfC1Q
140,"Calle Tesifonte Gallego, 5, 02002 Albacete, Spain",38.9927579,-1.8552574,ChIJSeJLP1ZeZg0R0ZcS77qKTEU
2857,"Av. de España, 31, 02002 Albacete, Spain",38.9855929,-1.8538264,ChIJg-aR_cJfZg0RsccOy5cX6MA
4781,"Calle Arquitecto Vandelvira, 66, 02004 Albacete, Spain",38.989764,-1.8655128,ChIJIZIdXMlfZg0Rg-edttKw7eQ
1514,"Av. Ramón Menéndez Pidal, 10, 02005 Albacete, Spain",39.0006614,-1.8617206,ChIJSeJLP1ZeZg0R2aXYZbllOjY
5996,"Calle Carr. de Madrid, 5, P+2006, 02006 Albacete, Spain",39.004135,-1.8664221,EjdQKzIwMDYsIENhbGxlIENhcnIuIGRlIE1hZHJpZCwgNSwgMDIwMDYgQWxiYWNldGUsIFNwYWluIiIaIAoWChQKEgm7sTf_rV9mDRFgy-h9CXYY5xIGUCsyMDA2
6122,"Calle Carr. de Jaén, 30, 02006 Albacete, Spain",38.9935246,-1.8738927,ChIJEdkqbDZeZg0R1axxbvuVFWo
7527,"Calle Lavadero, 1, 02640 Almansa, Albacete, Spain",38.8692213,-1.094581,ChIJjSYwGR1PYQ0Rcq_AuON6UVc
6124,"Calle Corredera, 91, 02640 Almansa, Albacete, Spain",38.8642376,-1.091504,ChIJFe_YdwRPYQ0RXV1dbedIgmo
1860,"Calle Tercia, 23, 02200 Casas-Ibáñez, Albacete, Spain",39.28688289999999,-1.470204,ChIJK6fPShLfZg0Rvrjv7_TCu1k
114,"Calle el Molino, 4, 02660 Caudete, Albacete, Spain",38.7055968,-0.9880707999999999,ChIJBQFVRjFZYQ0RLUgcR4fImbY
6123,"Calle Gran Vía, 67, 02400 Hellín, Albacete, Spain",38.5088033,-1.6933445,ChIJkxC9JJkvZA0RBnlYblEAN3c
1370,"Calle Sol, 12, 02400 Hellín, Albacete, Spain",38.510835,-1.7014265,ChIJm6cvHKcvZA0Rn2bWPK56M8Q
1426,"California, USA",36.778261,-119.4179324,ChIJPV4oX_65j4ARVW8IJ6IJUYs
2817,"Calle Los Martires, 6, 02630 La Roda, Albacete, Spain",39.2059737,-2.1588,ChIJyZi7lBE2Zg0Rsk7Fu8v6fvA
6320,"Av. Constitución, 11, 02500 Tobarra, Albacete, Spain",38.5926781,-1.6883644,ChIJTcHMPI8oZA0ROG0Bt8UjEt0
1044,"Calle San Bernardo, 21, 02600 Villarrobledo, Albacete, Spain",39.26482,-2.60526,ChIJfeJREsSHaA0RGh43nqI7zqk
2862,"Av. los Institutos, 4, 13600 Alcázar de San Juan, Cdad. Real, Spain",39.39284,-3.22096,ChIJpfTvBAOvaQ0R1xzH--9e7Bc
392,"Calle Emilio Castelar, 17, C+P, 13600 Alcázar de San Juan, Cdad. Real, Spain",39.3909378,-3.2091255,Ek1DK1AsIENhbGxlIEVtaWxpbyBDYXN0ZWxhciwgMTcsIDEzNjAwIEFsY8OhemFyIGRlIFNhbiBKdWFuLCBDZGFkLiBSZWFsLCBTcGFpbiIfGh0KFgoUChIJc2DPtvquaQ0RHu33xuhl7WASA0MrUA
2865,"Calle Mayor, 72, 13400 Almadén, Cdad. Real, Spain",38.7757229,-4.8338632,ChIJQcaPqkNEaw0R-JGM6BtRjec
6890,"Calle Feria, 7, 13270 Almagro, Cdad. Real, Spain",38.8894222,-3.7100296,ChIJG7dUr6lfaQ0R96WCEVeF_TE
1360,"Calle Dr. Ayllón, 1, C+P, 13260 Bolaños de Calatrava, Cdad. Real, Spain",38.905783,-3.666146399999999,EklDK1AsIENhbGxlIERyLiBBeWxsw7NuLCAxLCAxMzI2MCBCb2xhw7FvcyBkZSBDYWxhdHJhdmEsIENkYWQuIFJlYWwsIFNwYWluIh8aHQoWChQKEgkDCQBBdF5pDREFZh8xrQL8pxIDQytQ
1256,"Calle Sta. Ana, 17, 13610 Campo de Criptana, Cdad. Real, Spain",39.40612360000001,-3.1242599,ChIJz6UDNhytaQ0RC_J4wrVrrM4
390,"Calle Gral. Aguilera, 11, 13001 Ciudad Real, Cdad. Real, Spain",38.9842513,-3.928254,ChIJ689ly2rDaw0R5Vdsf6j6bgU
5614,"Calle Juan II, 6, 13001 Ciudad Real, Cdad. Real, Spain",38.9838585,-3.9301284,ChIJ7yLexRTDaw0RLmlbioKIhCA
2059,"Ciudad Real, Spain",38.9848295,-3.927377799999999,ChIJTReXPbPcaw0RK5znsegjr-8
2864,"Calle de la Mata, 39, 13004 Ciudad Real, Cdad. Real, Spain",38.9860022,-3.9207394,ChIJizNFqD_Daw0RKOAtEmIjQ70
7676,"Av. de los Reyes Católicos, 11, 13005 Ciudad Real, Cdad. Real, Spain",38.9724516,-3.9361669,ChIJL2VL7hnDaw0RaPNsO72d2Rw
2350,"Calle Gral. Espartero, 8, 13250 Daimiel, Cdad. Real, Spain",39.0683966,-3.6130108,ChIJgU-twBplaQ0RR7d_jXrPUfs
2736,"Plaza del Carmen, 5, 13680 Fuente el Fresno, Cdad. Real, Spain",39.22935409999999,-3.7747039,ChIJ085isBrVaw0RgkzsLxJQzmk
7266,"Av. de la Constitución, 5, 13640 Herencia, Cdad. Real, Spain",39.3683781,-3.3543407,ChIJP1iV1-ijaQ0RgGfLZZLKc3o
2863,"Calle Empedrada, 13, 13200 Manzanares, Cdad. Real, Spain",38.9973908,-3.3710984,ChIJw-JpZFwUaQ0RdIMqVRlZtU0
6674,"Calle Carnaval, 2, 13170 Miguelturra, Cdad. Real, Spain",38.9644991,-3.8887931,ChIJmSA2gSDdaw0R7-z-ATgOmAc
7679,"Calle don Eugenio Caja, 13, C+P, 13620 Pedro Muñoz, Cdad. Real, Spain",39.4049233,-2.9484641,EkZDK1AsIENhbGxlIGRvbiBFdWdlbmlvIENhamEsIDEzLCAxMzYyMCBQZWRybyBNdcOxb3osIENkYWQuIFJlYWwsIFNwYWluIh8aHQoWChQKEgmTwU6JiFBoDRG4lmAz8XT37BIDQytQ
5160,"Plaza Mayor, 13, 13120 Porzuna, Cdad. Real, Spain",39.1468398,-4.1539185,ChIJo2eoCkuxaw0Rmf8Ak7AuVsw
5321,"Calle María Auxiliadora, 2, 13500 Puertollano, Cdad. Real, Spain",38.6861173,-4.0992827,ChIJj7iDtJKMaw0Ru36DvxxlBpM
956,"Av. Primero de Mayo, 4, 13500 Puertollano, Cdad. Real, Spain",38.6865965,-4.1071534,ChIJ0dJjxvSMaw0Rziu6AW75uDY
2869,"Calle Don Quijote, 77, 13630 Socuéllamos, Cdad. Real, Spain",39.28500289999999,-2.7946958,ChIJhwRKO1_1aA0RCHhqzZ3e4FY
1083,"Calle Carrera, 67, 13240 La Solana, Cdad. Real, Spain",38.9430921,-3.2377086,ChIJ0S3IWXUYaQ0R3bhHzruGbq8
6157,"Av. Don Antonio Huertas, 100, 13700 Tomelloso, Cdad. Real, Spain",39.1514764,-3.0144441,ChIJi_lyL3z7aA0RrBhtSMuVJ04
394,"Calle de Don Víctor Peñasco, 46, 36+C+P, 13700 Tomelloso, Cdad. Real, Spain",39.1557249,-3.0228186,Ek0zNitDK1AsIENhbGxlIGRlIERvbiBWw61jdG9yIFBlw7Fhc2NvLCA0NiwgMTM3MDAgVG9tZWxsb3NvLCBDZGFkLiBSZWFsLCBTcGFpbiIiGiAKFgoUChIJYQ9rTYf8aA0Rz3whNH5m_gASBjM2K0MrUA
2818,"Av. Primero de Julio, 47, 13300 Valdepeñas, Cdad. Real, Spain",38.75761,-3.38508,ChIJD3Pglps3aQ0RYLnP1NF1YzI
393,"Calle del Seis de Junio, 54, 13300 Valdepeñas, Cdad. Real, Spain",38.7604984,-3.3877634,ChIJFXS8yJo3aQ0R_i2klPr1K0g
6715,"Calle Cervantes, 6, 13320 Villanueva de los Infantes, Cdad. Real, Spain",38.7363205,-3.0137969,ChIJG06rwCvRaA0RQw9wY-cuXGc
6755,"Plaza de la Constitución, S-N, 13670 Villarrubia de los Ojos, Cdad. Real, Spain",39.21769,-3.6069474,ChIJAVHlWLF5aQ0RzTHCaDXsuQs
5675,"Parque San Julián, 8, 16002 Cuenca, Spain",40.0725772,-2.1346674,ChIJ2fEsiW9nXQ0RA0EUJaOMioM
5896,"Av. de los Reyes Católicos, 74, 16003 Cuenca, Spain",40.058313,-2.1391093,ChIJO5LxaFxnXQ0RtZSyX9qe98M
2858,"Calle Fermín Caballero, 2, 16004 Cuenca, Spain",40.0697643,-2.1362605,ChIJ1wMV7EBnXQ0R90mBjoJg010
175,"Calle Carretería, 39, 16002 Cuenca, Spain",40.0725843,-2.1364097,ChIJKfl4iW9nXQ0RMZ2OJGfPNrk
2859,"Calle de los Hermanos Becerril, 10, 16004 Cuenca, Spain",40.0647844,-2.134019,ChIJ1wMV7EBnXQ0RRt4S6lVmbzE
3040,"Plaza la Constitución, 7, 16730 Honrubia, Cuenca, Spain",39.6134651,-2.2804592,ChIJl1qQ1FTbZw0RQNyYN1gBkn0
1673,"Calle Agustín Fernández García, 15, 16235 Iniesta, Cuenca, Spain",39.4445668,-1.749903,ChIJtUAKn9kFZw0RPBf5au1OAKU
524,"Plaza del Salero, 3, 16260 Minglanilla, Cuenca, Spain",39.5357201,-1.5944375,ChIJdaYcOsoWZw0R4bOvaUkKmT0
4477,"Calle Sacerdote Fernando Pastor, 14, C+P, 16200 Motilla del Palancar, Cuenca, Spain",39.5624477,-1.9110898,ElNDK1AsIENhbGxlIFNhY2VyZG90ZSBGZXJuYW5kbyBQYXN0b3IsIDE0LCAxNjIwMCBNb3RpbGxhIGRlbCBQYWxhbmNhciwgQ3VlbmNhLCBTcGFpbiIfGh0KFgoUChIJJfIJXP2jZw0R04ZZUd4J6DASA0MrUA
5615,"Calle la Feria, 5, 16600 San Clemente, Cuenca, Spain",39.4032418,-2.4286291,ChIJS3-6ilzWZw0RIu43mw5VXa8
1810,"Av. del Rey Juan Carlos I, 1, C+P, 16400 Tarancón, Cuenca, Spain",40.0101217,-3.0062592,EkFDK1AsIEF2LiBkZWwgUmV5IEp1YW4gQ2FybG9zIEksIDEsIDE2NDAwIFRhcmFuY8OzbiwgQ3VlbmNhLCBTcGFpbiIfGh0KFgoUChIJ-SlcP--DQg0RCVoBh909pjkSA0MrUA
55,"Av. Torrelaguna, 16, 19200 Azuqueca de Henares, Guadalajara, Spain",40.5642478,-3.2656651,ChIJCUPgi2ZNQg0R-779NoGXsCo
1897,"Calle Miguel Hernández, 3, 19171 Cabanillas del Campo, Guadalajara, Spain",40.6362719,-3.2342579,ChIJ4ZO-66OtQw0Rey_1c1KjQCA
180,"Guadalajara, Jalisco, Mexico",20.6596988,-103.3496092,ChIJm9MvtYyxKIQRUFeGvwKTPdY
2952,"Av. Castilla, 11, 13, 19002 Guadalajara, Spain",40.6261568,-3.1668046,ChIJE3DFpHCrQw0RDB6_cCzXkR8
6068,"Av. del Ejército, 17, 19003 Guadalajara, Spain",40.631008,-3.1772599,ChIJ-7ENfZ2rQw0R3MvnyCEhYmo
3108,"Plaza de la Magdalena, 3, 19220 Humanes, Guadalajara, Spain",40.8285099,-3.1560303,ChIJpYyHu8mmQw0RBpPL7GYnfbk
2951,"Calle Pz de Los, Plaza Pollos, 28, 19180 Marchamalo, Guadalajara, Spain",40.6695692,-3.2030396,ChIJizJU0CCsQw0RvRyk9GbtVpQ
4328,"Paseo los Adarves, 13, 19300 Molina de Aragón, Guadalajara, Spain",40.8431027,-1.8872031,ChIJCSYJxZT2XA0RSJGboIL5e8E
896,"Calle Cardenal Mendoza, 2, 19250 Sigüenza, Guadalajara, Spain",41.0681744,-2.6417335,ChIJDXx4oxVFQw0R7aLHKGqBDdY
4451,"Plaza España, 2, 45700 Consuegra, Toledo, Spain",39.4603613,-3.607023,ChIJhzFmIrqPaQ0R8BUKdxHHl1g
4447,"Calle Leoncia Díaz Cordovés, 12, 45880 Corral de Almaguer, Toledo, Spain",39.7587146,-3.1666166,ChIJQZzzNe_NaQ0RNVkmZCtS6Xs
2577,"Calle Juan de Ávalos, 1, 45221 Esquivias, Toledo, Spain",40.1037798,-3.7671067,ChIJHRiXkJX3QQ0Rg5J6j7iCtek
1069,"Calle Condes de Fuensalida, 3, 45510 Fuensalida, Toledo, Spain",40.0521086,-4.2085914,ChIJP6BSacHaQQ0Rl56gUDyUE28
883,"Calle Real, 90, 45200 Illescas, Toledo, Spain",40.1258612,-3.8481516,ChIJ18Ra5B7xQQ0RqZtV0bytGxU
4080,"Calle Real, 1, 45710 Madridejos, Toledo, Spain",39.4689242,-3.5344937,ChIJWxxn6_uQaQ0R3PR7xl3ypkY
46,"Calle Pz de la Constitucion, 13, 45400 Mora, Toledo, Spain",39.684155,-3.773021,ChIJlcVVRMUdag0RdDw2imnYShE
4827,"2 Hippo Way, Toledo, OH 43609, USA",41.6216435,-83.5825426,ChIJtxr5I52HO4gRZ7xpW5vlBbQ
4457,"Calle Tendezuelas, 9, 45516 La Puebla de Montalbán, Toledo, Spain",39.863587,-4.358587,ChIJTVdIh6l_ag0RBO0tXMHvk5M
184,"Plaza Miguel Echegaray, 6, 45800 Quintanar de la Orden, Toledo, Spain",39.5913744,-3.0423826,ChIJWZ5rB2pKaA0Rt8gDDs0n-y4
5978,"Cincinnati, OH 45223, USA",39.1674274,-84.5484275,ChIJbZMqD-y0QYgR3hCtfIAaEmw
357,"Calle Arroyada, 22, 45100 Sonseca, Toledo, Spain",39.6779854,-3.9723487,ChIJDcrJ5UURag0RK2_yqfrh6BY
861,"Calle Trinidad, 2, 4+C+P, 45600 Talavera de la Reina, Toledo, Spain",39.9623823,-4.8279589,EkM0K0MrUCwgQ2FsbGUgVHJpbmlkYWQsIDIsIDQ1NjAwIFRhbGF2ZXJhIGRlIGxhIFJlaW5hLCBUb2xlZG8sIFNwYWluIiEaHwoWChQKEgmd39dvChxADRHmjc4rvyMh9RIFNCtDK1A
7685,"Av. Francisco Aguirre, 257, 45600 Talavera de la Reina, Toledo, Spain",39.96524,-4.836159900000001,ChIJ51h5bosbQA0R0A_hB2y8axo
2563,"Av. de la Constitución, 12, C+P, 45600 Talavera de la Reina, Toledo, Spain",39.96373,-4.815119999999999,EktDK1AsIEF2LiBkZSBsYSBDb25zdGl0dWNpw7NuLCAxMiwgNDU2MDAgVGFsYXZlcmEgZGUgbGEgUmVpbmEsIFRvbGVkbywgU3BhaW4iHxodChYKFAoSCYe01Vn_G0ANEYq9nONAxVhDEgNDK1A
6330,"Calle Comercio, 43, 45001 Toledo, Spain",39.8593719,-4.0221952,ChIJRcms7aULag0RTyrVpqzGMaA
7513,"Toledo, OH, USA",41.6528052,-83.5378674,ChIJeU4e_C2HO4gRRcM6RZ_IPHw
4464,"Av. de Portugal, 18, 45005 Toledo, Spain",39.8765487,-4.0329845,ChIJwaz1W_kKag0RJ4Z5il7GFFY
6333,"Calle Esparteros, 4, 45006 Toledo, Spain",39.8591984,-4.0039172,ChIJZ6DYpMgLag0R2Mdw_PKD2pI
6332,"Calle Río Alberche, 41, 45007 Toledo, Spain",39.8673564,-3.9462538,ChIJU71s7v0Iag0RpCmHVNAhduY
4452,"Av. Estación, 45, 45500 Torrijos, Toledo, Spain",39.9821635,-4.281834799999999,ChIJm9hCAdPWQQ0RiGFL19kj2sU
7341,"Maria Stein, OH 45860, USA",40.4025767,-84.5012435,ChIJf4OMsjGxP4gRZKfwvpZTUVU
6642,"Plaza de España, 15, 45730 Villafranca de los Caballeros, Toledo, Spain",39.427274,-3.3633886,ChIJkwnL_DmjaQ0RdhQ0HNV1qZY
6673,"Calle Real, 95-97, 45210 Yuncos, Toledo, Spain",40.0888782,-3.8727329,ChIJaWAEBXvwQQ0RRbRwzfHprpA
1816,"Carrer del Pont, 15, 08591 Aiguafreda, Barcelona, Spain",41.7671915,2.2512229,ChIJY4ZRSBDbpBIRXijNxtUQblI
2454,"Rambla Àngel Guimerà, 10, 08328 Alella, Barcelona, Spain",41.4931181,2.2954588,ChIJAZFOeQS6pBIRuDrUjBpt4yo
3347,"Carrer de la Torregassa, 4, C+P, 08480 L'Ametlla del Vallès, Barcelona, Spain",41.67003020000001,2.2615583,Ek5DK1AsIENhcnJlciBkZSBsYSBUb3JyZWdhc3NhLCA0LCAwODQ4MCBMJ0FtZXRsbGEgZGVsIFZhbGzDqHMsIEJhcmNlbG9uYSwgU3BhaW4iHxodChYKFAoSCW9zSesyxKQSEbTdKwUErgLyEgNDK1A
1468,"Riera del Bisbe Pol, 18-20, 08350 Arenys de Mar, Barcelona, Spain",41.5796072,2.5510605,ChIJ-wU_ERs2uxIR2tsUFuegwhw
242,"Calle, Rambla Sant Martí, 18, 08358 Arenys de Munt, Barcelona, Spain",41.6087474,2.5407741,ChIJYY91Sn82uxIRa0oElI631E0
495,"Av. Puig i Cadafalch,20-Esq. M. Cinto V, 08310 Argentona, Barcelona, Spain",41.5540396,2.4032348,ChIJtXbIqr-1pBIRpUstIHjZwcc
3521,"Carrer Rocafort, 41, 08271 Artés, Barcelona, Spain",41.79726,1.9526,ChIJL7krsA77pBIRF3iuZjm_BH8
2954,"Avinguda Pau Casals, 46, C+P, 08610 Avià, Barcelona, Spain",42.0780245,1.8208821,EjtDK1AsIEF2aW5ndWRhIFBhdSBDYXNhbHMsIDQ2LCAwODYxMCBBdmnDoCwgQmFyY2Vsb25hLCBTcGFpbiIfGh0KFgoUChIJb4pGDe6npRIRU1hDWXEUGwISA0MrUA
3565,"Plaça Major, 6, C+P, 08279 Avinyó, Barcelona, Spain",41.86349,1.97103,EjVDK1AsIFBsYcOnYSBNYWpvciwgNiwgMDgyNzkgQXZpbnnDsywgQmFyY2Vsb25hLCBTcGFpbiIfGh0KFgoUChIJD-dhhyD9pBIRnBClcIM9CXwSA0MrUA
262,"101-107 Pl. 1ª, Carrer de Francesc Layret, 08911 Badalona, Barcelona, Spain",41.4505215,2.2478046,ChIJ4Y0Y-w67pBIRYezTMVbUhNU
3172,"Carrer de Güell i Ferrer, 59, 08912 Badalona, Barcelona, Spain",41.4451468,2.2409128,ChIJ22EHiGy7pBIRi7ubqPDLxCY
3246,"Av. d'Alfons XIII, 553, 08913 Badalona, Barcelona, Spain",41.4344474,2.2191265,ChIJmdjMrqa8pBIRv_BGHxJjEsQ
721,"Avinguda del Marquès de Sant Morí, 122, 08914 Badalona, Barcelona, Spain",41.440991,2.2233977,ChIJDV8b3Z-8pBIREywYelLNmMI
8749,"Passeig Olof Palme, 24, 08914 Badalona, Barcelona, Spain",41.4547814,2.2271027,ChIJd2punn67pBIR3v9DWf1Tg3A
8313,"Passeig de la Salut, 8, 08914 Badalona, Barcelona, Spain",41.4398,2.22828,ChIJA6YCqmC7pBIRksWvzz0zyog
4087,"Avinguda de Morera, 2, 14, 08915 Badalona, Barcelona, Spain",41.4600453,2.248612,ChIJ9dgrTKe7pBIRMW2a4qaZig4
1491,"Carrer de la Independència, 198-200, 08915 Badalona, Barcelona, Spain",41.460133,2.2415233,ChIJYYo2xZ-7pBIRSFzlsnC3w20
1973,"Av. de Catalunya, 65, 71, 08917 Badalona, Barcelona, Spain",41.45976659999999,2.20505,ChIJxb9wp0KYpBIRDK2_BBciILY
5292,"Carrer Cuba, 35, C+P, 08917 Badalona, Barcelona, Spain",41.4512126,2.2377832,EjZDK1AsIENhcnJlciBDdWJhLCAzNSwgMDg5MTcgQmFkYWxvbmEsIEJhcmNlbG9uYSwgU3BhaW4iHxodChYKFAoSCes-5o5xu6QSEcvUXkYJH7nSEgNDK1A
1781,"Av. Burgos (Ajuntament), 08214 Badia del Vallés, Barcelona, Spain",41.5089908,2.1143981,ChIJowXEjNCVpBIRX82J7MtQa8s
3570,"Carrer del Raval, 1, 08695 Bagà, Barcelona, Spain",42.25289,1.86234,ChIJY4wDcQV1pRIR9U1LKg2V4to
2897,"Ctra. de Berga, 1, C+P, 08660 Balsareny, Barcelona, Spain",41.8645644,1.8743303,EjlDK1AsIEN0cmEuIGRlIEJlcmdhLCAxLCAwODY2MCBCYWxzYXJlbnksIEJhcmNlbG9uYSwgU3BhaW4iHxodChYKFAoSCcMApmH__qQSEXcpNQNvTM40EgNDK1A
3578,"Av. de la Generalitat, 94, C+P, 08210 Barberà del Vallès, Barcelona, Spain",41.5160015,2.1259798,EkxDK1AsIEF2LiBkZSBsYSBHZW5lcmFsaXRhdCwgOTQsIDA4MjEwIEJhcmJlcsOgIGRlbCBWYWxsw6hzLCBCYXJjZWxvbmEsIFNwYWluIh8aHQoWChQKEgkzWl_l6ZWkEhFFuqmnjKm6bRIDQytQ
9768,"Carrer de Nemesi Valls, 55, C+P, 08210 Barberà del Vallès, Barcelona, Spain",41.5167908,2.1298733,Ek1DK1AsIENhcnJlciBkZSBOZW1lc2kgVmFsbHMsIDU1LCAwODIxMCBCYXJiZXLDoCBkZWwgVmFsbMOocywgQmFyY2Vsb25hLCBTcGFpbiIfGh0KFgoUChIJzRxO_OuVpBIRObfpFOMVCDwSA0MrUA
9312,"Av. Tibidabo, 08022 Barcelona, Spain",41.4100099,2.1370574,ChIJRW1ypQ-YpBIR8-Rbosai4IE
8760,"Passeig del Dr. Moragas, 220, 08210 Barberà del Vallès, Barcelona, Spain",41.5152025,2.1248182,ChIJX94acsKVpBIREwsx6Bj193k
4809,"Carrer de Ferlandina, 36, 08001 Barcelona, Spain",41.3817076,2.1642707,ChIJf1kHsYqipBIROtugeWwlvg4
1042,"Ronda de Sant Pau, 42, 44, 08001 Barcelona, Spain",41.3771075,2.165478,ChIJH4bP-B69pBIRt6q9h2YRlvM
210,"Rambla de Sant Josep, 82, 08002 Barcelona, Spain",41.3813871,2.1732575,ChIJEy2wsveipBIRURtFVevSs0c
1043,"Passeig de Joan de Borbó, 36, 37, 08003 Barcelona, Spain",41.3785279,2.1882144,ChIJOb-AhACjpBIR70a-nfYdpHI
999,"Plaça d'Antoni Maura, 6, C+P, 08003 Barcelona, Spain",41.3855042,2.1761501,EjVDK1AsIFBsYcOnYSBkJ0FudG9uaSBNYXVyYSwgNiwgMDgwMDMgQmFyY2Vsb25hLCBTcGFpbiIfGh0KFgoUChIJd3YIhvmipBIRODWhSeflgrgSA0MrUA
1001,"Pla de Palau, 14, 08003 Barcelona, Spain",41.3833135,2.1834832,ChIJzyorKPqipBIREmiK2vjF5AM
4609,"Plaça d'Antoni Maura, 6, 08003 Barcelona, Spain",41.3855042,2.1761501,ChIJd3YIhvmipBIRODWhSeflgrg
209,"Rambla del Poblenou, 108, 08005 Barcelona, Spain",41.402991,2.1989328,ChIJOf_tKjyjpBIRhVaul6VlOjA
8740,"Bilbao, Biscay, Spain",43.2630126,-2.9349852,ChIJuYlLZidOTg0RRaaVHsSsNGU
8606,"Barcelona, Spain",41.3850639,2.1734035,ChIJ5TCOcRaYpBIRCmZHTz37sEQ
4311,"Carrer de Joan Miró, 21, 08005 Barcelona, Spain",41.3909747,2.1940493,ChIJ0ywpphqjpBIRsp6sTMYIAuM
8727,"Via Augusta, 48, 08006 Barcelona, Spain",41.3983636,2.1536456,ChIJ_Y8FypmipBIRIVnw7oImA4U
1016,"Ronda del General Mitre, 203, 08023 Barcelona, Spain",41.4056102,2.1426843,ChIJD7ilyguYpBIRF3l1ig5-k5s
880,"Carrer dels Madrazo, 14, P+8006, 08006 Barcelona, Spain",41.4012546,2.150137,EjdQKzgwMDYsIENhcnJlciBkZWxzIE1hZHJhem8sIDE0LCAwODAwNiBCYXJjZWxvbmEsIFNwYWluIiIaIAoWChQKEglRGXeqmKKkEhGsFuf6d6vFWhIGUCs4MDA2
4853,"Avinguda Diagonal, 534, C+P, 08006 Barcelona, Spain",41.3949118,2.1518878,EjNDK1AsIEF2aW5ndWRhIERpYWdvbmFsLCA1MzQsIDA4MDA2IEJhcmNlbG9uYSwgU3BhaW4iHxodChYKFAoSCUfuM7aboqQSEWJVRC52eHz0EgNDK1A
1797,"Passeig de Gràcia, 25, 08007 Barcelona, Spain",41.3905518,2.1663769,ChIJC4wKC5OipBIRNylnuSiqc8g
3077,"Carrer de Mallorca, 228, P+8008, 08008 Barcelona, Spain",41.3917519,2.1601049,EjdQKzgwMDgsIENhcnJlciBkZSBNYWxsb3JjYSwgMjI4LCAwODAwOCBCYXJjZWxvbmEsIFNwYWluIiIaIAoWChQKEgkBlhEbkqKkEhHyRDO2dukFPxIGUCs4MDA4
9694,"Carrer de Girona, 112, C+P, 08009 Barcelona, Spain",41.396952,2.1684885,EjJDK1AsIENhcnJlciBkZSBHaXJvbmEsIDExMiwgMDgwMDkgQmFyY2Vsb25hLCBTcGFpbiIfGh0KFgoUChIJqw8C6-uipBIRExxaCt4nU1QSA0MrUA
4618,"Carrer de Pau Claris, 76, 08010 Barcelona, Spain",41.3895187,2.1717544,ChIJSU5BtvGipBIRM8ib7fp9ntk
1002,"Carrer d'Ausiàs Marc, 26, 28, 08010 Barcelona, Spain",41.3911655,2.1757086,ChIJxb9wp0KYpBIRyaYdLtdRZd8
4915,"Plaça de Tetuan, 26, 08010 Barcelona, Spain",41.3956145,2.1752287,ChIJsfTyC-aipBIRWbS5u8Te-rY
206,"Gran Via de les Corts Catalanes, 506, 510, 08011 Barcelona, Spain",41.3813935,2.1579883,ChIJZ1sysYuipBIRX24NiCvG3AM
3071,"Carrer d'Aribau, 49, C+P, 08011 Barcelona, Spain",41.3879117,2.1597881,EjBDK1AsIENhcnJlciBkJ0FyaWJhdSwgNDksIDA4MDExIEJhcmNlbG9uYSwgU3BhaW4iHxodChYKFAoSCVtNBCiMoqQSEaIDqziMlSpkEgNDK1A
6315,"Carrer de Verdi, 84, 08012 Barcelona, Spain",41.4054172,2.1552328,ChIJNQTAsbyipBIRPBDVnEzSWwA
2987,"Travessera de Gràcia, 175, C+P, 08012 Barcelona, Spain",41.401853,2.1583799,EjdDK1AsIFRyYXZlc3NlcmEgZGUgR3LDoGNpYSwgMTc1LCAwODAxMiBCYXJjZWxvbmEsIFNwYWluIh8aHQoWChQKEglnavySvaKkEhFLrkLO7fajbhIDQytQ
205,"Carrer Gran de Gràcia, 47, 08012 Barcelona, Spain",41.3991468,2.1559461,ChIJSdWropeipBIRWTEv3CjKnHQ
1010,"Carrer Gran de Gràcia, 117, C+P, 08012 Barcelona, Spain",41.4015397,2.1533345,EjhDK1AsIENhcnJlciBHcmFuIGRlIEdyw6BjaWEsIDExNywgMDgwMTIgQmFyY2Vsb25hLCBTcGFpbiIfGh0KFgoUChIJW0VcmaKipBIRW1jY1z3mR4sSA0MrUA
3976,"Carrer de Nàpols, 105, 08013 Barcelona, Spain",41.3948853,2.1797789,ChIJdbW78OOipBIRFjotE25KVI4
2383,"Carrer d'Aragó, 406-408, 08013 Barcelona, Spain",41.3989339,2.1741473,ChIJdwuOcOiipBIRWWWdAMn0r4A
6296,"Carrer de Cartagena, 187, 191, 08013 Barcelona, Spain",41.4049334,2.1824045,ChIJz5vbOt-ipBIRbLKgQJLIL1w
1008,"Carrer de Mallorca, 401, 08013 Barcelona, Spain",41.4036299,2.1743558,ChIJk_s92NyipBIRUMnDG8Kq2Js
9303,"Gran Via de les Corts Catalanes, 341, P+8014, 08014 Barcelona, Spain",41.3734954,2.1465679,EkRQKzgwMTQsIEdyYW4gVmlhIGRlIGxlcyBDb3J0cyBDYXRhbGFuZXMsIDM0MSwgMDgwMTQgQmFyY2Vsb25hLCBTcGFpbiIiGiAKFgoUChIJK_dQWXiipBIR7L_Qnpms0JUSBlArODAxNA
4592,"Berlin, Germany",52.52000659999999,13.404954,ChIJAVkDPzdOqEcRcDteW0YgIQQ
1005,"Carrer de Sants, 39, 08014 Barcelona, Spain",41.3752114,2.1385576,ChIJCZopOYSYpBIRMpxFC7u98Z8
4607,"La Bordeta, Barcelona, Spain",41.3676592,2.1364314,ChIJ9YqNjJqYpBIRl8yJMcG8SBo
4212,"Avinguda del Paral·lel, 82, 08015 Barcelona, Spain",41.37554009999999,2.1662241,ChIJCQRCzV2ipBIRIqEDbT1Vx5Q
1013,"Avinguda del Paral·lel, 148, 08015 Barcelona, Spain",41.3751969,2.1582382,ChIJYS1va2SipBIRGBRjIBD0O2Q
211,"08015 Barcelona, Spain",41.378633,2.1523914,ChIJKY7WtmKipBIRkE5HeuP6ABw
3032,"Carrer del Comte Borrell, 79, 08015 Barcelona, Spain",41.3786903,2.1606507,ChIJdVkNn2GipBIR7siMbXQLAHw
3993,"Carrer de Pablo Iglesias, 102, 110, 08016 Barcelona, Spain",41.4454096,2.1831954,ChIJm8Vacx69pBIRdyZPjB3MuZ8
1024,"Via Júlia, 163, 08042 Barcelona, Spain",41.4439024,2.1783193,ChIJoU8M9Bi9pBIR4p5YZrOQ52Y
6304,"Carrer de Piferrer, 144-146, 08016 Barcelona, Spain",41.4323973,2.1776361,ChIJq8cRuyW9pBIRTG8aVfiu3mo
4161,"Passeig de Fabra i Puig, 169, C+P, 08016 Barcelona, Spain",41.4300329,2.1782311,EjlDK1AsIFBhc3NlaWcgZGUgRmFicmEgaSBQdWlnLCAxNjksIDA4MDE2IEJhcmNlbG9uYSwgU3BhaW4iHxodChYKFAoSCSFlb0QvvaQSEU80FYUo3IfPEgNDK1A
4383,"Passeig de la Bonanova, 47, 08017 Barcelona, Spain",41.4041337,2.1292814,ChIJpXxvYRSYpBIRcWVD82UVnos
1048,"Via Augusta, 279, C+P, 08017 Barcelona, Spain",41.3976703,2.130555,Ei1DK1AsIFZpYSBBdWd1c3RhLCAyNzksIDA4MDE3IEJhcmNlbG9uYSwgU3BhaW4iHxodChYKFAoSCQ0CpgtsmKQSEdHAniA3StRhEgNDK1A
3978,"Carrer Major de Sarrià, 54, 08017 Barcelona, Spain",41.39769889999999,2.1231234,ChIJCT5_hUGYpBIRV8HOVggWs1Q
7058,"Carrer de la Marina, 82, 08018 Barcelona, Spain",41.3935305,2.1892361,ChIJd1XxhxujpBIRo5KX4pFZHeg
7432,"Aragon, Spain",41.5976275,-0.9056623,ChIJ-W5lP-4UWQ0RWP14-ZVCICA
7028,"Rambla de Prim, 44-52, 08019 Barcelona, Spain",41.4147691,2.2152445,ChIJ58TYjlGjpBIRD-FjKoJWTDI
1029,"Rambla de Guipúscoa, 110, 08020 Barcelona, Spain",41.41975559999999,2.202041,ChIJvwYkLzWjpBIRE-KwyYqF_PQ
3245,"Gipuzkoa, Spain",43.0756299,-2.2236667,ChIJzcnkHDg1UA0RcMrJc4L1BAM
3528,"Calle, Gran Via de les Corts Catalanes, 987, 08020 Barcelona, Spain",41.4126986,2.1981793,ChIJNcPR2DCjpBIRhdrKxSxV5R4
829,"Carrer de Josep Pla, 163, C+P, 08020 Barcelona, Spain",41.4155372,2.206553,EjVDK1AsIENhcnJlciBkZSBKb3NlcCBQbGEsIDE2MywgMDgwMjAgQmFyY2Vsb25hLCBTcGFpbiIfGh0KFgoUChIJC6z600ujpBIR_YJzV4x4FkcSA0MrUA
7062,"Carrer de la Selva de Mar, 234, 08020 Barcelona, Spain",41.4175399,2.1978561,ChIJ5fTnoTOjpBIRvlMvz7Bj9-I
4585,"Carrer de Ganduxer, 34, 08021 Barcelona, Spain",41.3939493,2.1383477,ChIJz3Y-CHGYpBIRUi65tFLXUJM
1015,"Via Augusta, 159, C+P, 08021 Barcelona, Spain",41.3986585,2.1430926,Ei1DK1AsIFZpYSBBdWd1c3RhLCAxNTksIDA4MDIxIEJhcmNlbG9uYSwgU3BhaW4iHxodChYKFAoSCVGM86h1mKQSEf1gRcNYGazOEgNDK1A
1966,"Avinguda Diagonal, 622, C+P, 08021 Barcelona, Spain",41.3920077,2.1400172,EjNDK1AsIEF2aW5ndWRhIERpYWdvbmFsLCA2MjIsIDA4MDIxIEJhcmNlbG9uYSwgU3BhaW4iHxodChYKFAoSCWsBYq1wmKQSET6eWZaq1KpqEgNDK1A
1045,"Carrer de Muntaner, 273, 08021 Barcelona, Spain",41.3956487,2.1469256,ChIJLYh10Z2ipBIRKabCmLeoWEc
4278,"Carrer de Calvet, 33, 33, 08021 Barcelona, Spain",41.3951047,2.142808800000001,EjAzMywgQ2FycmVyIGRlIENhbHZldCwgMzMsIDA4MDIxIEJhcmNlbG9uYSwgU3BhaW4iHhocChYKFAoSCfmBoWB2mKQSETDWtx5p1kiCEgIzMw
3067,"Plaça de Joaquim Folguera, 10, C+P, 08022 Barcelona, Spain",41.4059089,2.1388012,EjtDK1AsIFBsYcOnYSBkZSBKb2FxdWltIEZvbGd1ZXJhLCAxMCwgMDgwMjIgQmFyY2Vsb25hLCBTcGFpbiIfGh0KFgoUChIJN56OIgyYpBIR4mU8KJ9XiGUSA0MrUA
807,"Calle, Ronda del General Mitre, 115, 117, 08022 Barcelona, Spain",41.4016075,2.1361217,ChIJYZPISg2YpBIRXkG41qv3O1k
6325,"Carrer de Muntaner, 561, 08022 Barcelona, Spain",41.405427,2.134801,ChIJcUez3AyYpBIRM7lG8roeH_k
4775,"Avinguda de la República Argentina, 226, 08023 Barcelona, Spain",41.4121816,2.1404402,ChIJTf8pDwaYpBIRVL4SlJaO9aw
222,"Avinguda de la República Argentina, 59, P+8023, 08023 Barcelona, Spain",41.409366,2.1463823,EkdQKzgwMjMsIEF2aW5ndWRhIGRlIGxhIFJlcMO6YmxpY2EgQXJnZW50aW5hLCA1OSwgMDgwMjMgQmFyY2Vsb25hLCBTcGFpbiIiGiAKFgoUChIJLdPUoqeipBIR3QBDAMYZSLQSBlArODAyMw
810,"Carrer de l'Escorial, 29, C+P, 08024 Barcelona, Spain",41.4072494,2.1612314,EjVDK1AsIENhcnJlciBkZSBsJ0VzY29yaWFsLCAyOSwgMDgwMjQgQmFyY2Vsb25hLCBTcGFpbiIfGh0KFgoUChIJ6-B0FbmipBIRFkiCPketLZoSA0MrUA
3169,"Carrer de la Providència, 141, 143+C+P, 08024 Barcelona, Spain",41.4103121,2.1631753,Ej8xNDMrQytQLCBDYXJyZXIgZGUgbGEgUHJvdmlkw6huY2lhLCAxNDEsIDA4MDI0IEJhcmNlbG9uYSwgU3BhaW4iIxohChYKFAoSCdltHD24oqQSEeZwKYOIyd1bEgcxNDMrQytQ
3185,"Travessera de Dalt, 17, P+8024, 08024 Barcelona, Spain",41.4085096,2.1518231,EjZQKzgwMjQsIFRyYXZlc3NlcmEgZGUgRGFsdCwgMTcsIDA4MDI0IEJhcmNlbG9uYSwgU3BhaW4iIhogChYKFAoSCReifFKkoqQSEb4zLA54xre9EgZQKzgwMjQ
9697,"Carrer de Sardenya, 550, C+P, 08024 Barcelona, Spain",41.4134071,2.1615326,EjRDK1AsIENhcnJlciBkZSBTYXJkZW55YSwgNTUwLCAwODAyNCBCYXJjZWxvbmEsIFNwYWluIh8aHQoWChQKEgnXiCgdt6KkEhFVC6TTaSkMNBIDQytQ
204,"Avinguda de Gaudí, 63, 08025 Barcelona, Spain",41.4089222,2.1742003,ChIJxb9wp0KYpBIRTS4qxLZN5RA
6326,"Carrer de los Castillejos, 362, P+8025, 08025 Barcelona, Spain",41.4115528,2.1718626,Ej5QKzgwMjUsIENhcnJlciBkZSBsb3MgQ2FzdGlsbGVqb3MsIDM2MiwgMDgwMjUgQmFyY2Vsb25hLCBTcGFpbiIiGiAKFgoUChIJ69khds-ipBIRKoLepMRj5sUSBlArODAyNQ
4702,"Carrer de Sardenya, 380, C+P, 08025 Barcelona, Spain",41.40638269999999,2.1695553,EjRDK1AsIENhcnJlciBkZSBTYXJkZW55YSwgMzgwLCAwODAyNSBCYXJjZWxvbmEsIFNwYWluIh8aHQoWChQKEgk5cSOoxqKkEhEv1k2ngwAz9RIDQytQ
5825,"Carrer de Rogent, 60, 08026 Barcelona, Spain",41.4097044,2.1840828,ChIJFXtBCdiipBIRdncpaLxg71g
9600,"Avinguda Meridiana & Carrer de Trinxant, 08026 Barcelona, Spain",41.4139299,2.1869909,Ej9BdmluZ3VkYSBNZXJpZGlhbmEgJiBDYXJyZXIgZGUgVHJpbnhhbnQsIDA4MDI2IEJhcmNlbG9uYSwgU3BhaW4iZiJkChQKEgmZ_-wJKaOkEhEHSoflZT_FdBIUChIJmf_sCSmjpBIRB0qH5WU_xXQaFAoSCcuS89cpvaQSEbGcj_BckCZWGhQKEgn1RdL_1aKkEhELYe08bGcWMiIKDaNDrxgVVbVNAQ
812,"Carrer de Rogent, 60, C+P, 08026 Barcelona, Spain",41.4097044,2.1840828,EjFDK1AsIENhcnJlciBkZSBSb2dlbnQsIDYwLCAwODAyNiBCYXJjZWxvbmEsIFNwYWluIh8aHQoWChQKEgn530MJ2KKkEhHFcgvY-FK7fxIDQytQ
9239,"08027 Barcelona, Spain",41.42304439999999,2.1867861,ChIJGYaBzSqjpBIRwE1HeuP6ABw
6328,"Carrer de Palència, 31, 33, 08027 Barcelona, Spain",41.4183263,2.1904211,ChIJ1cB5YiyjpBIRZUN2nfAo-Ns
